,amadeus_code,rates,lat,lon,location_cell,tripadvisor_amenities,tripadvisor_name
0,ALLGA121,202.6793846153846,40.77,-73.87009,20,"['Room Service', 'Free Parking', 'Restaurant', 'Bar/Lounge', 'Free High Speed Internet ( WiFi )', 'Fitness Center with Gym / Workout Room', 'Shuttle Bus Service', 'Room Service', 'Free Parking', 'Airport Transportation', 'Meeting Rooms', 'Business Center with Internet Access', 'Laundry Service', 'Breakfast Available', 'Air Conditioning', 'Refrigerator in room', 'Restaurant', 'Bar/Lounge', 'Fitness Center with Gym / Workout Room']",Aloft New York LaGuardia Airport
1,ALNYC353,259.2768085106383,40.80906,-73.95155,12,"['Free High Speed Internet ( WiFi )', 'Pool', 'Fitness Center with Gym / Workout Room', 'Dry Cleaning', 'Laundry Service', 'Multilingual Staff', 'Business Center with Internet Access', 'Air Conditioning', 'Pool', 'Fitness Center with Gym / Workout Room']",Aloft Harlem
2,ALNYC647,284.79325,40.71029,-74.0069,126,"['Bar/Lounge', 'Free High Speed Internet ( WiFi )', 'Fitness Center with Gym / Workout Room', 'Dry Cleaning', 'Business Center with Internet Access', 'Laundry Service', 'Air Conditioning', 'Bar/Lounge', 'Fitness Center with Gym / Workout Room']",Aloft Manhattan Downtown Financial District
3,ALNYC940,232.56063829787234,40.7485,-73.93989,85,"['Bar/Lounge', 'Free High Speed Internet ( WiFi )', 'Fitness Center with Gym / Workout Room', 'Business Center with Internet Access', 'Laundry Service', 'Air Conditioning', 'Bar/Lounge', 'Fitness Center with Gym / Workout Room']",Aloft Long Island City - Manhattan View
4,BINYCHBB,827.2485858585859,40.70224,-73.99554,68,"['Pool', 'Room Service', 'Restaurant', 'Bar/Lounge', 'Spa', 'Free High Speed Internet ( WiFi )', 'Fitness Center with Gym / Workout Room', 'Room Service', 'Dry Cleaning', 'Meeting Rooms', 'Business Center with Internet Access', 'Laundry Service', 'Concierge', 'Multilingual Staff', 'Air Conditioning', 'Refrigerator in room', 'Minibar', 'Pool', 'Restaurant', 'Bar/Lounge', 'Spa', 'Fitness Center with Gym / Workout Room', 'Heated pool']",1 Hotel Brooklyn Bridge
5,BINYCHOT,951.2670796460175,40.76476,-73.97681,97,"['Free High Speed Internet ( WiFi )', 'Room Service', 'Restaurant', 'Bar/Lounge', 'Fitness Center with Gym / Workout Room', 'Room Service', 'Dry Cleaning', 'Meeting Rooms', 'Business Center with Internet Access', 'Laundry Service', 'Concierge', 'Air Conditioning', 'Minibar', 'Restaurant', 'Bar/Lounge', 'Fitness Center with Gym / Workout Room']",1 Hotel Central Park
6,BRNYCBRB,397.8358208955224,40.76104,-73.96941,94,"['Restaurant', 'Fitness Center with Gym / Workout Room', 'Free High Speed Internet ( WiFi )', 'Bar/Lounge', 'Room Service', 'Business Center with Internet Access', 'Dry Cleaning', 'Laundry Service', 'Concierge', 'Multilingual Staff', 'Room Service', 'Meeting Rooms', 'Air Conditioning', 'Restaurant', 'Fitness Center with Gym / Workout Room', 'Bar/Lounge']",Renaissance New York Hotel 57
7,BTNYC7A3,323.19259259259263,40.71494,-74.00969,73,"['Free High Speed Internet ( WiFi )', 'Fitness Center with Gym / Workout Room', 'Dry Cleaning', 'Laundry Service', 'Concierge', 'Multilingual Staff', 'Air Conditioning', 'Fitness Center with Gym / Workout Room']",The Frederick Hotel
8,BTNYCBLC,336.6028571428571,40.78255,-73.98111,17,"['Free High Speed Internet ( WiFi )', 'Fitness Center with Gym / Workout Room', 'Dry Cleaning', 'Meeting Rooms', 'Laundry Service', 'Concierge', 'Multilingual Staff', 'Business Center with Internet Access', 'Breakfast Available', 'Air Conditioning', 'Refrigerator in room', 'Minibar', 'Fitness Center with Gym / Workout Room']",Hotel Belleclaire
9,BTNYCGER,298.0141304347827,40.74398,-73.98698,90,"['Free High Speed Internet ( WiFi )', 'Dry Cleaning', 'Concierge', 'Multilingual Staff', 'Air Conditioning', 'Refrigerator in room']",The Evelyn
10,BWJFK119,157.69243697479004,40.66617,-73.78498,87,"['Free Parking', 'Free High Speed Internet ( WiFi )', 'Breakfast included', 'Fitness Center with Gym / Workout Room', 'Free Parking', 'Shuttle Bus Service', 'Airport Transportation', 'Breakfast included', 'Business Center with Internet Access', 'Laundry Service', 'Multilingual Staff', 'Fitness Center with Gym / Workout Room']",Best Western JFK Airport Hotel
11,BWJFK124,156.77105263157907,40.62484,-74.02764,35,"['Free High Speed Internet ( WiFi )', 'Bar/Lounge', 'Breakfast included', 'Breakfast included', 'Meeting Rooms', 'Business Center with Internet Access', 'Laundry Service', 'Air Conditioning', 'Bar/Lounge']",BEST WESTERN Gregory Hotel
12,BWJFK141,142.90578947368402,40.70483,-73.8169,25,"['Free High Speed Internet ( WiFi )', 'Free Parking', 'Breakfast included', 'Fitness Center with Gym / Workout Room', 'Free Parking', 'Breakfast included', 'Multilingual Staff', 'Meeting Rooms', 'Business Center with Internet Access', 'Laundry Service', 'Air Conditioning', 'Microwave', 'Fitness Center with Gym / Workout Room', 'Tennis Court']",Best Western Jamaica Inn
13,BWJFK142,170.26192982456146,40.67837,-73.94654,114,"['Free Parking', 'Free High Speed Internet ( WiFi )', 'Breakfast included', 'Fitness Center with Gym / Workout Room', 'Free Parking', 'Breakfast included', 'Multilingual Staff', 'Meeting Rooms', 'Business Center with Internet Access', 'Air Conditioning', 'Refrigerator in room', 'Microwave', 'Fitness Center with Gym / Workout Room']",Best Western Plus Arena Hotel
14,BWLGA131,163.5964516129032,40.584,-73.93862,14,"['Free Parking', 'Free High Speed Internet ( WiFi )', 'Breakfast included', 'Fitness Center with Gym / Workout Room', 'Free Parking', 'Breakfast included', 'Fitness Center with Gym / Workout Room']",Best Western Plus Brooklyn Bay Hotel
15,BWNYC111,131.24961538461523,40.75938,-73.83344,11,"['Free High Speed Internet ( WiFi )', 'Breakfast included', 'Fitness Center with Gym / Workout Room', 'Room Service', 'Breakfast included', 'Room Service', 'Meeting Rooms', 'Fitness Center with Gym / Workout Room']",Best Western Queens Court Hotel
16,BWNYC114,415.7424999999999,40.75618,-73.97362,70,"['Free High Speed Internet ( WiFi )', 'Breakfast included', 'Breakfast included', 'Laundry Service', 'Dry Cleaning', 'Concierge', 'Multilingual Staff', 'Air Conditioning', 'Microwave', 'Refrigerator in room', 'Tennis Court']",Best Western Plus Hospitality House
17,BWNYC133,247.32028985507264,40.7184,-73.99518,66,"['Free High Speed Internet ( WiFi )', 'Breakfast included', 'Fitness Center with Gym / Workout Room', 'Breakfast included', 'Multilingual Staff', 'Dry Cleaning', 'Laundry Service', 'Air Conditioning', 'Fitness Center with Gym / Workout Room']",Best Western Bowery Hanbee Hotel
18,BWNYC143,167.33823529411748,40.75607,-73.94047,9,"['Free High Speed Internet ( WiFi )', 'Breakfast included', 'Fitness Center with Gym / Workout Room', 'Breakfast included', 'Laundry Service', 'Multilingual Staff', 'Air Conditioning', 'Refrigerator in room', 'Fitness Center with Gym / Workout Room']",Best Western Plaza Hotel
19,BWNYC152,326.03126984127005,40.75036,-73.98526,61,"['Free High Speed Internet ( WiFi )', 'Fitness Center with Gym / Workout Room', 'Bar/Lounge', 'Breakfast included', 'Breakfast included', 'Dry Cleaning', 'Business Center with Internet Access', 'Laundry Service', 'Concierge', 'Multilingual Staff', 'Air Conditioning', 'Fitness Center with Gym / Workout Room', 'Bar/Lounge']",Best Western Premier Herald Square
20,BWNYC157,132.55060240963857,40.76167,-73.76069,36,"['Restaurant', 'Free Parking', 'Free High Speed Internet ( WiFi )', 'Breakfast included', 'Fitness Center with Gym / Workout Room', 'Room Service', 'Bar/Lounge', 'Free Parking', 'Breakfast included', 'Meeting Rooms', 'Multilingual Staff', 'Room Service', 'Dry Cleaning', 'Laundry Service', 'Banquet Room', 'Restaurant', 'Fitness Center with Gym / Workout Room', 'Bar/Lounge']",Best Western Queens Gold Coast
21,BWNYC160,136.7571052631578,40.7521,-73.85393,50,"['Free Parking', 'Free High Speed Internet ( WiFi )', 'Breakfast included', 'Fitness Center with Gym / Workout Room', 'Shuttle Bus Service', 'Free Parking', 'Airport Transportation', 'Breakfast included', 'Business Center with Internet Access', 'Multilingual Staff', 'Dry Cleaning', 'Meeting Rooms', 'Laundry Service', 'Air Conditioning', 'Microwave', 'Refrigerator in room', 'Fitness Center with Gym / Workout Room']",Best Western Plus La Guardia Airport Hotel Queens
22,CCNYC222,231.28571428571428,40.7441,-73.98334,92,"['Free High Speed Internet ( WiFi )', 'Breakfast included', 'Fitness Center with Gym / Workout Room', 'Breakfast included', 'Dry Cleaning', 'Business Center with Internet Access', 'Laundry Service', 'Concierge', 'Multilingual Staff', 'Fitness Center with Gym / Workout Room', 'Tennis Court']",Clarion Hotel Park Avenue
23,CIEWR470,106.82758620689658,40.58743,-74.191,19,"['Free Parking', 'Free High Speed Internet ( WiFi )', 'Breakfast included', 'Fitness Center with Gym / Workout Room', 'Free Parking', 'Shuttle Bus Service', 'Breakfast included', 'Breakfast Available', 'Meeting Rooms', 'Business Center with Internet Access', 'Multilingual Staff', 'Air Conditioning', 'Fitness Center with Gym / Workout Room']",Comfort Inn Staten Island
24,CIJFK464,171.54250000000005,40.75906,-73.99007,99,"['Free High Speed Internet ( WiFi )', 'Breakfast included', 'Breakfast included', 'Multilingual Staff', 'Breakfast Available']",Comfort Inn Times Square West
25,CILGA265,148.48,40.7494,-73.94167,85,"['Free High Speed Internet ( WiFi )', 'Breakfast included', 'Fitness Center with Gym / Workout Room', 'Breakfast included', 'Multilingual Staff', 'Breakfast Available', 'Meeting Rooms', 'Business Center with Internet Access', 'Laundry Service', 'Air Conditioning', 'Fitness Center with Gym / Workout Room', 'Hot Tub']",Comfort Inn
26,CILGA392,124.3529411764706,40.76581,-73.88615,54,"['Free High Speed Internet ( WiFi )', 'Breakfast included', 'Free Parking', 'Airport Transportation', 'Breakfast included', 'Breakfast Available', 'Free Parking', 'Dry Cleaning', 'Multilingual Staff']",Comfort Inn LaGuardia Airport - 83rd St
27,CINYC325,240.87173913043492,40.75555,-73.99178,15,"['Spa', 'Free High Speed Internet ( WiFi )', 'Breakfast included', 'Fitness Center with Gym / Workout Room', 'Breakfast included', 'Multilingual Staff', 'Breakfast Available', 'Laundry Service', 'Spa', 'Fitness Center with Gym / Workout Room']",Comfort Inn Times Square South
28,CINYC355,226.17777777777786,40.7168,-73.99449,66,"['Free High Speed Internet ( WiFi )', 'Breakfast included', 'Fitness Center with Gym / Workout Room', 'Multilingual Staff', 'Breakfast included', 'Breakfast Available', 'Laundry Service', 'Concierge', 'Fitness Center with Gym / Workout Room']",Comfort Inn Manhattan Bridge
29,CINYC529,170.05000000000007,40.80993,-73.92932,96,"['Free High Speed Internet ( WiFi )', 'Breakfast included', 'Fitness Center with Gym / Workout Room', 'Breakfast included', 'Business Center with Internet Access', 'Breakfast Available', 'Air Conditioning', 'Microwave', 'Refrigerator in room', 'Fitness Center with Gym / Workout Room']",Comfort Inn & Suites near Stadium
30,CINYC548,252.42500000000007,40.76413,-73.99496,74,"['Free High Speed Internet ( WiFi )', 'Breakfast included', 'Breakfast included', 'Breakfast Available', 'Air Conditioning']",Comfort Inn Midtown West
31,CINYC551,241.3025641025642,40.71222,-73.99269,43,"['Free High Speed Internet ( WiFi )', 'Breakfast included', 'Fitness Center with Gym / Workout Room', 'Breakfast included', 'Banquet Room', 'Breakfast Available', 'Airport Transportation', 'Dry Cleaning', 'Business Center with Internet Access', 'Laundry Service', 'Concierge', 'Multilingual Staff', 'Conference Facilities', 'Air Conditioning', 'Fitness Center with Gym / Workout Room']",Comfort Inn Lower East Side
32,CKNYCTHS,369.3857851239665,40.72453,-74.00821,77,"['Restaurant', 'Bar/Lounge', 'Free High Speed Internet ( WiFi )', 'Dry Cleaning', 'Meeting Rooms', 'Business Center with Internet Access', 'Laundry Service', 'Concierge', 'Multilingual Staff', 'Conference Facilities', 'Refrigerator in room', 'Air Conditioning', 'Restaurant', 'Bar/Lounge']",Arlo SoHo
33,CKNYCTOM,356.18965517241367,40.74636,-73.98495,7,"['Restaurant', 'Bar/Lounge', 'Free High Speed Internet ( WiFi )', 'Dry Cleaning', 'Meeting Rooms', 'Laundry Service', 'Concierge', 'Breakfast Available', 'Air Conditioning', 'Refrigerator in room', 'Restaurant', 'Bar/Lounge']",Arlo NoMad
34,CNNYC151,850.7305263157897,40.76357,-73.9807,23,"['Restaurant', 'Free High Speed Internet ( WiFi )', 'Fitness Center with Gym / Workout Room', 'Room Service', 'Bar/Lounge', 'Business Center with Internet Access', 'Room Service', 'Dry Cleaning', 'Meeting Rooms', 'Laundry Service', 'Concierge', 'Banquet Room', 'Multilingual Staff', 'Conference Facilities', 'Breakfast Available', 'Air Conditioning', 'Microwave', 'Refrigerator in room', 'Minibar', 'Restaurant', 'Fitness Center with Gym / Workout Room', 'Bar/Lounge']",The London NYC
35,CPNYC0DD,374.75,40.75374,-73.99374,78,"['Free High Speed Internet ( WiFi )', 'Fitness Center with Gym / Workout Room', 'Children Activities (Kid / Family Friendly)', 'Dry Cleaning', 'Meeting Rooms', 'Business Center with Internet Access', 'Concierge', 'Multilingual Staff', 'Air Conditioning', 'Refrigerator in room', 'Fitness Center with Gym / Workout Room']",Crowne Plaza HY36 Midtown Manhattan
36,CPNYC58E,220.9824,40.66776,-73.79924,48,"['Free Parking', 'Free High Speed Internet ( WiFi )', 'Fitness Center with Gym / Workout Room', 'Room Service', 'Restaurant', 'Bar/Lounge', 'Free Parking', 'Shuttle Bus Service', 'Room Service', 'Airport Transportation', 'Business Center with Internet Access', 'Dry Cleaning', 'Meeting Rooms', 'Laundry Service', 'Concierge', 'Banquet Room', 'Multilingual Staff', 'Conference Facilities', 'Air Conditioning', 'Refrigerator in room', 'Fitness Center with Gym / Workout Room', 'Restaurant', 'Bar/Lounge']",Crowne Plaza JFK Airport New York City
37,CQNYC558,291.0,40.75587,-73.98084,69,"['Free High Speed Internet ( WiFi )', 'Room Service', 'Restaurant', 'Fitness Center with Gym / Workout Room', 'Bar/Lounge', 'Business Center with Internet Access', 'Room Service', 'Dry Cleaning', 'Meeting Rooms', 'Laundry Service', 'Concierge', 'Multilingual Staff', 'Conference Facilities', 'Air Conditioning', 'Restaurant', 'Fitness Center with Gym / Workout Room', 'Bar/Lounge']","Club Quarters Hotel, Midtown"
38,CQNYC684,291.0,40.7068,-74.00899,102,"['Room Service', 'Fitness Center with Gym / Workout Room', 'Restaurant', 'Free High Speed Internet ( WiFi )', 'Bar/Lounge', 'Room Service', 'Business Center with Internet Access', 'Dry Cleaning', 'Meeting Rooms', 'Laundry Service', 'Concierge', 'Multilingual Staff', 'Conference Facilities', 'Air Conditioning', 'Fitness Center with Gym / Workout Room', 'Restaurant', 'Bar/Lounge']","Club Quarters Hotel, Wall Street"
39,CYJFKJFC,202.05405405405406,40.66706,-73.79304,91,"['Free High Speed Internet ( WiFi )', 'Fitness Center with Gym / Workout Room', 'Bar/Lounge', 'Restaurant', 'Shuttle Bus Service', 'Airport Transportation', 'Meeting Rooms', 'Business Center with Internet Access', 'Multilingual Staff', 'Conference Facilities', 'Dry Cleaning', 'Laundry Service', 'Self-Serve Laundry', 'Breakfast Available', 'Microwave', 'Fitness Center with Gym / Workout Room', 'Bar/Lounge', 'Restaurant']",Courtyard by Marriott New York JFK Airport
40,CYNYCMDC,393.96629213483146,40.75386,-73.98578,61,"['Free High Speed Internet ( WiFi )', 'Fitness Center with Gym / Workout Room', 'Bar/Lounge', 'Business Center with Internet Access', 'Laundry Service', 'Concierge', 'Multilingual Staff', 'Conference Facilities', 'Dry Cleaning', 'Meeting Rooms', 'Banquet Room', 'Self-Serve Laundry', 'Air Conditioning', 'Fitness Center with Gym / Workout Room', 'Bar/Lounge']",Courtyard New York Manhattan/Times Square
41,CYNYCMEC,371.4078947368421,40.75727,-73.96965,3,"['Fitness Center with Gym / Workout Room', 'Free High Speed Internet ( WiFi )', 'Business Center with Internet Access', 'Dry Cleaning', 'Meeting Rooms', 'Laundry Service', 'Concierge', 'Multilingual Staff', 'Conference Facilities', 'Banquet Room', 'Air Conditioning', 'Fitness Center with Gym / Workout Room']",Courtyard New York Manhattan/Midtown East
42,CYNYCPKC,412.7625,40.76435,-73.98228,23,"['Bar/Lounge', 'Free High Speed Internet ( WiFi )', 'Fitness Center with Gym / Workout Room', 'Restaurant', 'Dry Cleaning', 'Meeting Rooms', 'Business Center with Internet Access', 'Laundry Service', 'Concierge', 'Multilingual Staff', 'Conference Facilities', 'Self-Serve Laundry', 'Air Conditioning', 'Bar/Lounge', 'Fitness Center with Gym / Workout Room', 'Restaurant']",Courtyard by Marriott New York Manhattan/Central Park
43,CYNYCXMC,356.0681818181818,40.70933,-74.01266,10,"['Restaurant', 'Bar/Lounge', 'Free High Speed Internet ( WiFi )', 'Fitness Center with Gym / Workout Room', 'Meeting Rooms', 'Business Center with Internet Access', 'Laundry Service', 'Multilingual Staff', 'Dry Cleaning', 'Air Conditioning', 'Refrigerator in room', 'Restaurant', 'Bar/Lounge', 'Fitness Center with Gym / Workout Room']",Courtyard New York Downtown Manhattan / World Trade Center Area
44,DIJFK196,129.11923076923077,40.6747,-73.90581,8,"['Free Parking', 'Free High Speed Internet ( WiFi )', 'Breakfast included', 'Fitness Center with Gym / Workout Room', 'Free Parking', 'Breakfast included', 'Business Center with Internet Access', 'Air Conditioning', 'Refrigerator in room', 'Fitness Center with Gym / Workout Room']",Days inn Brooklyn Crown Heights
45,DIJFK787,169.66812499999997,40.66538,-73.78395,87,"['Free Parking', 'Free High Speed Internet ( WiFi )', 'Breakfast included', 'Free Parking', 'Shuttle Bus Service', 'Breakfast included', 'Airport Transportation', 'Multilingual Staff', 'Air Conditioning']",Days Inn Jamaica - Jfk Airport
46,DINYC486,189.23707865168547,40.79294,-73.97181,38,"['Room Service', 'Free Internet', 'Room Service', 'Concierge', 'Multilingual Staff', 'Air Conditioning']",Days Inn Hotel New York City-Broadway
47,DINYC759,153.29666666666668,40.65209,-74.00529,93,"['Free High Speed Internet ( WiFi )', 'Free Parking', 'Room Service', 'Breakfast included', 'Fitness Center with Gym / Workout Room', 'Free Parking', 'Room Service', 'Breakfast included', 'Business Center with Internet Access', 'Concierge', 'Multilingual Staff', 'Fitness Center with Gym / Workout Room']",Days Inn Brooklyn
48,DINYC986,126.11249999999997,40.61752,-73.9278,31,"['Free High Speed Internet ( WiFi )', 'Breakfast included', 'Breakfast included', 'Business Center with Internet Access', 'Laundry Service', 'Concierge', 'Multilingual Staff']",Days Inn Brooklyn Borough Park
49,DSNYCCSH,1944.4871794871794,40.72299,-73.99741,115,"['Room Service', 'Restaurant', 'Free High Speed Internet ( WiFi )', 'Fitness Center with Gym / Workout Room', 'Bar/Lounge', 'Room Service', 'Airport Transportation', 'Dry Cleaning', 'Meeting Rooms', 'Business Center with Internet Access', 'Laundry Service', 'Concierge', 'Conference Facilities', 'Babysitting', 'Air Conditioning', 'Minibar', 'Restaurant', 'Fitness Center with Gym / Workout Room', 'Bar/Lounge']",Crosby Street Hotel
50,DSNYCGPH,1065.359375,40.73859,-73.98596,63,"['Restaurant', 'Room Service', 'Free High Speed Internet ( WiFi )', 'Bar/Lounge', 'Fitness Center with Gym / Workout Room', 'Room Service', 'Dry Cleaning', 'Meeting Rooms', 'Laundry Service', 'Concierge', 'Multilingual Staff', 'Conference Facilities', 'Business Center with Internet Access', 'Banquet Room', 'Babysitting', 'Air Conditioning', 'Minibar', 'Restaurant', 'Bar/Lounge', 'Fitness Center with Gym / Workout Room']",Gramercy Park Hotel
51,DSNYCHAM,373.3333333333333,40.75043,-74.00284,83,"['Pool', 'Room Service', 'Restaurant', 'Free High Speed Internet ( WiFi )', 'Bar/Lounge', 'Room Service', 'Dry Cleaning', 'Laundry Service', 'Multilingual Staff', 'Concierge', 'Babysitting', 'Air Conditioning', 'Pool', 'Restaurant', 'Bar/Lounge', 'Outdoor pool']",Hotel Americano
52,DSNYCWHE,1852.7954545454545,40.76259,-73.97575,97,"['Room Service', 'Restaurant', 'Bar/Lounge', 'Free High Speed Internet ( WiFi )', 'Room Service', 'Air Conditioning', 'Restaurant', 'Bar/Lounge']",The Whitby Hotel
53,DTLGA100,223.4074725274725,40.747,-73.99087,55,"['Restaurant', 'Fitness Center with Gym / Workout Room', 'Room Service', 'Bar/Lounge', 'Free High Speed Internet ( WiFi )', 'Room Service', 'Business Center with Internet Access', 'Dry Cleaning', 'Laundry Service', 'Concierge', 'Multilingual Staff', 'Air Conditioning', 'Restaurant', 'Fitness Center with Gym / Workout Room', 'Bar/Lounge']",Doubletree Hotel Chelsea - New York City
54,DTNYC601,439.7911087866113,40.75694,-73.97205,70,"['Restaurant', 'Room Service', 'Fitness Center with Gym / Workout Room', 'Bar/Lounge', 'Free Internet', 'Room Service', 'Business Center with Internet Access', 'Dry Cleaning', 'Meeting Rooms', 'Laundry Service', 'Concierge', 'Banquet Room', 'Multilingual Staff', 'Conference Facilities', 'Air Conditioning', 'Restaurant', 'Fitness Center with Gym / Workout Room', 'Bar/Lounge']",Doubletree Hotel Metropolitan - New York City
55,DTNYC917,362.3938775510203,40.70405,-74.01259,53,"['Fitness Center with Gym / Workout Room', 'Room Service', 'Restaurant', 'Bar/Lounge', 'Business Center with Internet Access', 'Room Service', 'Dry Cleaning', 'Meeting Rooms', 'Laundry Service', 'Concierge', 'Multilingual Staff', 'Conference Facilities', 'Air Conditioning', 'Fitness Center with Gym / Workout Room', 'Restaurant', 'Bar/Lounge']",DoubleTree by Hilton Hotel New York City - Financial District
56,DZNYCDDT,591.3445263157895,40.74178,-74.0031,34,"['Free High Speed Internet ( WiFi )', 'Restaurant', 'Fitness Center with Gym / Workout Room', 'Pool', 'Room Service', 'Bar/Lounge', 'Room Service', 'Children Activities (Kid / Family Friendly)', 'Airport Transportation', 'Dry Cleaning', 'Meeting Rooms', 'Business Center with Internet Access', 'Laundry Service', 'Concierge', 'Banquet Room', 'Multilingual Staff', 'Conference Facilities', 'Breakfast Available', 'Air Conditioning', 'Minibar', 'Restaurant', 'Fitness Center with Gym / Workout Room', 'Pool', 'Bar/Lounge', 'Heated pool', 'Outdoor pool']",Dream Downtown
57,DZNYCDNY,724.8684210526316,40.76446,-73.98166,23,"['Restaurant', 'Room Service', 'Free High Speed Internet ( WiFi )', 'Bar/Lounge', 'Room Service', 'Dry Cleaning', 'Laundry Service', 'Concierge', 'Multilingual Staff', 'Breakfast Available', 'Airport Transportation', 'Air Conditioning', 'Minibar', 'Restaurant', 'Bar/Lounge']",Dream Midtown
58,DZNYCSHN,298.6421428571427,40.75907,-73.9837,103,"['Restaurant', 'Bar/Lounge', 'Free High Speed Internet ( WiFi )', 'Room Service', 'Laundry Service', 'Concierge', 'Room Service', 'Dry Cleaning', 'Multilingual Staff', 'Air Conditioning', 'Restaurant', 'Bar/Lounge']",Night Times Square
59,DZNYCTHN,567.1594594594592,40.76097,-73.98551,52,"['Restaurant', 'Room Service', 'Free High Speed Internet ( WiFi )', 'Fitness Center with Gym / Workout Room', 'Bar/Lounge', 'Room Service', 'Dry Cleaning', 'Laundry Service', 'Concierge', 'Children Activities (Kid / Family Friendly)', 'Business Center with Internet Access', 'Multilingual Staff', 'Breakfast Available', 'Meeting Rooms', 'Conference Facilities', 'Air Conditioning', 'Minibar', 'Restaurant', 'Fitness Center with Gym / Workout Room', 'Bar/Lounge']",The Time New York
60,EALGA651,156.67627450980376,40.7856,-73.8113,42,"['Free High Speed Internet ( WiFi )', 'Airport Transportation', 'Multilingual Staff', 'Self-Serve Laundry', 'Meeting Rooms', 'Laundry Service', 'Microwave']",Extended Stay America - New York City - Laguardia Airport
61,EBNYCEBE,1577.8653846153845,40.7412,-73.98773,122,"['Free High Speed Internet ( WiFi )', 'Room Service', 'Restaurant', 'Bar/Lounge', 'Spa', 'Fitness Center with Gym / Workout Room', 'Room Service', 'Dry Cleaning', 'Meeting Rooms', 'Business Center with Internet Access', 'Laundry Service', 'Concierge', 'Multilingual Staff', 'Air Conditioning', 'Minibar', 'Restaurant', 'Bar/Lounge', 'Spa', 'Fitness Center with Gym / Workout Room']",The New York EDITION
62,ELNYC361,338.7888235294118,40.7561,-73.992,15,"['Free High Speed Internet ( WiFi )', 'Fitness Center with Gym / Workout Room', 'Breakfast included', 'Pool', 'Business Center with Internet Access', 'Breakfast included', 'Dry Cleaning', 'Meeting Rooms', 'Laundry Service', 'Concierge', 'Multilingual Staff', 'Self-Serve Laundry', 'Conference Facilities', 'Air Conditioning', 'Microwave', 'Fitness Center with Gym / Workout Room', 'Pool']",Element New York Times Square West
63,EONYC318,140.94374999999997,40.76046,-73.98754,52,"['Spa', 'Free High Speed Internet ( WiFi )', 'Breakfast included', 'Fitness Center with Gym / Workout Room', 'Breakfast included', 'Multilingual Staff', 'Air Conditioning', 'Spa', 'Fitness Center with Gym / Workout Room']",Econo Lodge Times Square
64,EZNYC537,397.12183098591544,40.74673,-73.99157,55,"['Room Service', 'Restaurant', 'Bar/Lounge', 'Spa', 'Free High Speed Internet ( WiFi )', 'Fitness Center with Gym / Workout Room', 'Room Service', 'Dry Cleaning', 'Meeting Rooms', 'Business Center with Internet Access', 'Laundry Service', 'Concierge', 'Multilingual Staff', 'Air Conditioning', 'Microwave', 'Refrigerator in room', 'Restaurant', 'Bar/Lounge', 'Spa', 'Fitness Center with Gym / Workout Room']",Cambria hotel & suites New York - Chelsea
65,FANYC100,2643.6666666666665,40.7643,-73.9729,51,"['Restaurant', 'Room Service', 'Fitness Center with Gym / Workout Room', 'Bar/Lounge', 'Spa', 'Room Service', 'Business Center with Internet Access', 'Airport Transportation', 'Dry Cleaning', 'Meeting Rooms', 'Laundry Service', 'Concierge', 'Banquet Room', 'Multilingual Staff', 'Conference Facilities', 'Babysitting', 'Air Conditioning', 'Minibar', 'Restaurant', 'Fitness Center with Gym / Workout Room', 'Bar/Lounge', 'Spa']",The Plaza
66,FNJFKJJF,227.09259259259258,40.66632,-73.77945,4,"['Restaurant', 'Free High Speed Internet ( WiFi )', 'Fitness Center with Gym / Workout Room', 'Breakfast included', 'Bar/Lounge', 'Business Center with Internet Access', 'Shuttle Bus Service', 'Breakfast included', 'Airport Transportation', 'Meeting Rooms', 'Multilingual Staff', 'Dry Cleaning', 'Laundry Service', 'Microwave', 'Restaurant', 'Fitness Center with Gym / Workout Room', 'Bar/Lounge']",Fairfield Inn New York JFK Airport
67,FNNYCFIF,384.2857142857143,40.75631,-73.99159,15,"['Free High Speed Internet ( WiFi )', 'Bar/Lounge', 'Fitness Center with Gym / Workout Room', 'Breakfast included', 'Business Center with Internet Access', 'Breakfast included', 'Laundry Service', 'Concierge', 'Multilingual Staff', 'Dry Cleaning', 'Bar/Lounge', 'Fitness Center with Gym / Workout Room']",Fairfield Inn & Suites New York Manhattan/Times Square
68,FNNYCFQF,180.24242424242425,40.7368,-73.93564,39,"['Free High Speed Internet ( WiFi )', 'Fitness Center with Gym / Workout Room', 'Breakfast included', 'Breakfast included', 'Shuttle Bus Service', 'Multilingual Staff', 'Dry Cleaning', 'Meeting Rooms', 'Business Center with Internet Access', 'Laundry Service', 'Concierge', 'Banquet Room', 'Air Conditioning', 'Fitness Center with Gym / Workout Room']",Fairfield Inn New York Long Island City / Manhattan View
69,FNNYCLMF,303.3692307692308,40.70604,-74.00502,58,"['Free High Speed Internet ( WiFi )', 'Breakfast included', 'Fitness Center with Gym / Workout Room', 'Breakfast included', 'Dry Cleaning', 'Business Center with Internet Access', 'Laundry Service', 'Multilingual Staff', 'Air Conditioning', 'Fitness Center with Gym / Workout Room']",Fairfield Inn New York Manhattan/Financial District
70,FNNYCTMF,395.6842105263158,40.75106,-73.98448,61,"['Free High Speed Internet ( WiFi )', 'Breakfast included', 'Breakfast included', 'Laundry Service', 'Multilingual Staff', 'Dry Cleaning']",Fairfield Inn & Suites New York Manhattan/Fifth Avenue
71,FNNYCTWF,370.89473684210526,40.7462,-73.99096,55,"['Free High Speed Internet ( WiFi )', 'Fitness Center with Gym / Workout Room', 'Breakfast included', 'Breakfast included', 'Business Center with Internet Access', 'Multilingual Staff', 'Dry Cleaning', 'Laundry Service', 'Concierge', 'Air Conditioning', 'Fitness Center with Gym / Workout Room']",Fairfield Inn & Suites New York Manhattan/Chelsea
72,FSNYC009,1104.404761904762,40.71249,-74.00905,73,"['Pool', 'Room Service', 'Restaurant', 'Bar/Lounge', 'Spa', 'Free High Speed Internet ( WiFi )', 'Fitness Center with Gym / Workout Room', 'Room Service', 'Dry Cleaning', 'Meeting Rooms', 'Business Center with Internet Access', 'Laundry Service', 'Concierge', 'Banquet Room', 'Conference Facilities', 'Airport Transportation', 'Multilingual Staff', 'Breakfast Available', 'Air Conditioning', 'Minibar', 'Pool', 'Restaurant', 'Bar/Lounge', 'Spa', 'Fitness Center with Gym / Workout Room', 'Heated pool', 'Indoor pool']",Four Seasons Hotel New York Downtown
73,GDNYCBRO,179.62499999999997,40.74439,-73.98891,90,"['Breakfast included', 'Breakfast included', 'Airport Transportation', 'Dry Cleaning', 'Laundry Service', 'Concierge', 'Multilingual Staff', 'Babysitting', 'Air Conditioning', 'Tennis Court']",Broadway Plaza Hotel
74,GDNYCH32,312.92452830188677,40.74628,-73.98341,7,"['Free High Speed Internet ( WiFi )', 'Breakfast included', 'Breakfast included', 'Air Conditioning']",Hotel 32 32
75,GDNYCHRH,195.73000000000002,40.75553,-73.99759,118,"['Free High Speed Internet ( WiFi )', 'Breakfast included', 'Breakfast included', 'Multilingual Staff', 'Laundry Service', 'Breakfast Available', 'Air Conditioning']",Hudson River Hotel
76,GDNYCMIM,147.9556,40.71414,-73.99379,43,"['Free High Speed Internet ( WiFi )', 'Room Service', 'Room Service', 'Laundry Service', 'Multilingual Staff', 'Air Conditioning']",Hotel Mimosa
77,GGNYCSGH,787.1442307692307,40.7217,-74.00445,27,"['Room Service', 'Free High Speed Internet ( WiFi )', 'Fitness Center with Gym / Workout Room', 'Restaurant', 'Bar/Lounge', 'Room Service', 'Dry Cleaning', 'Meeting Rooms', 'Laundry Service', 'Concierge', 'Air Conditioning', 'Minibar', 'Fitness Center with Gym / Workout Room', 'Restaurant', 'Bar/Lounge']",Soho Grand Hotel
78,GIEWR198,180.8781962025313,40.61543,-74.17328,33,"['Pool', 'Free Parking', 'Room Service', 'Restaurant', 'Free High Speed Internet ( WiFi )', 'Fitness Center with Gym / Workout Room', 'Bar/Lounge', 'Free Parking', 'Business Center with Internet Access', 'Room Service', 'Shuttle Bus Service', 'Airport Transportation', 'Dry Cleaning', 'Meeting Rooms', 'Laundry Service', 'Banquet Room', 'Multilingual Staff', 'Conference Facilities', 'Self-Serve Laundry', 'Air Conditioning', 'Microwave', 'Refrigerator in room', 'Pool', 'Restaurant', 'Fitness Center with Gym / Workout Room', 'Bar/Lounge', 'Heated pool', 'Indoor pool']",Hilton Garden Inn New York/Staten Island
79,GIISP963,228.83359447004605,40.75027,-73.93688,60,"['Room Service', 'Restaurant', 'Bar/Lounge', 'Free High Speed Internet ( WiFi )', 'Fitness Center with Gym / Workout Room', 'Room Service', 'Dry Cleaning', 'Meeting Rooms', 'Business Center with Internet Access', 'Laundry Service', 'Breakfast Available', 'Air Conditioning', 'Microwave', 'Restaurant', 'Bar/Lounge', 'Fitness Center with Gym / Workout Room']",Hilton Garden Inn Long Island City Queensboro Bridge
80,GIJFK321,230.1786754966888,40.66529,-73.80603,24,"['Restaurant', 'Fitness Center with Gym / Workout Room', 'Room Service', 'Free High Speed Internet ( WiFi )', 'Bar/Lounge', 'Business Center with Internet Access', 'Room Service', 'Meeting Rooms', 'Shuttle Bus Service', 'Multilingual Staff', 'Conference Facilities', 'Dry Cleaning', 'Laundry Service', 'Self-Serve Laundry', 'Microwave', 'Air Conditioning', 'Refrigerator in room', 'Restaurant', 'Fitness Center with Gym / Workout Room', 'Bar/Lounge']",Hilton Garden Inn Queens / JFK Airport
81,GILGA212,380.5954609929078,40.74642,-73.99151,55,"['Room Service', 'Fitness Center with Gym / Workout Room', 'Free Internet', 'Restaurant', 'Bar/Lounge', 'Business Center with Internet Access', 'Room Service', 'Dry Cleaning', 'Meeting Rooms', 'Laundry Service', 'Concierge', 'Multilingual Staff', 'Microwave', 'Fitness Center with Gym / Workout Room', 'Restaurant', 'Bar/Lounge']",Hilton Garden Inn New York/Manhattan-Chelsea
82,GILGA963,391.55890547263704,40.75663,-73.96938,3,"['Fitness Center with Gym / Workout Room', 'Free Internet', 'Restaurant', 'Room Service', 'Bar/Lounge', 'Room Service', 'Dry Cleaning', 'Meeting Rooms', 'Business Center with Internet Access', 'Laundry Service', 'Concierge', 'Multilingual Staff', 'Self-Serve Laundry', 'Microwave', 'Fitness Center with Gym / Workout Room', 'Restaurant', 'Bar/Lounge']",Hilton Garden Inn New York/Manhattan-Midtown East
83,GINYC302,220.81523076923074,40.75448,-73.9936,78,"['Room Service', 'Restaurant', 'Bar/Lounge', 'Free High Speed Internet ( WiFi )', 'Fitness Center with Gym / Workout Room', 'Room Service', 'Business Center with Internet Access', 'Air Conditioning', 'Microwave', 'Refrigerator in room', 'Restaurant', 'Bar/Lounge', 'Fitness Center with Gym / Workout Room']",Hilton Garden Inn New York Times Square South
84,GINYC483,315.4090566037736,40.76439,-73.9832,23,"['Fitness Center with Gym / Workout Room', 'Bar/Lounge', 'Free Internet', 'Restaurant', 'Business Center with Internet Access', 'Laundry Service', 'Dry Cleaning', 'Meeting Rooms', 'Concierge', 'Multilingual Staff', 'Self-Serve Laundry', 'Conference Facilities', 'Air Conditioning', 'Microwave', 'Fitness Center with Gym / Workout Room', 'Bar/Lounge', 'Restaurant']",Hilton Garden Inn New York/Central Park South-Midtown West
85,GINYC774,291.17474576271195,40.70283,-74.01218,53,"['Room Service', 'Restaurant', 'Bar/Lounge', 'Free High Speed Internet ( WiFi )', 'Fitness Center with Gym / Workout Room', 'Room Service', 'Business Center with Internet Access', 'Breakfast Available', 'Restaurant', 'Bar/Lounge', 'Fitness Center with Gym / Workout Room']",Hilton Garden Inn NYC Financial Center/Manhattan Downtown
86,GINYC790,313.4981598062957,40.76106,-73.98703,52,"['Restaurant', 'Fitness Center with Gym / Workout Room', 'Free Internet', 'Bar/Lounge', 'Business Center with Internet Access', 'Dry Cleaning', 'Meeting Rooms', 'Laundry Service', 'Concierge', 'Multilingual Staff', 'Conference Facilities', 'Air Conditioning', 'Microwave', 'Restaurant', 'Fitness Center with Gym / Workout Room', 'Bar/Lounge']",Hilton Garden Inn Times Square
87,GVNYC042,656.9735169491526,40.74392,-73.98415,92,"['Pool', 'Restaurant', 'Fitness Center with Gym / Workout Room', 'Room Service', 'Free High Speed Internet ( WiFi )', 'Bar/Lounge', 'Spa', 'Room Service', 'Children Activities (Kid / Family Friendly)', 'Airport Transportation', 'Dry Cleaning', 'Meeting Rooms', 'Business Center with Internet Access', 'Laundry Service', 'Concierge', 'Banquet Room', 'Conference Facilities', 'Breakfast Available', 'Air Conditioning', 'Refrigerator in room', 'Minibar', 'Pool', 'Restaurant', 'Fitness Center with Gym / Workout Room', 'Bar/Lounge', 'Spa', 'Heated pool', 'Outdoor pool']",Gansevoort Park Avenue NYC
88,GVNYC707,647.5376744186032,40.73354,-74.01031,71,"['Pool', 'Restaurant', 'Fitness Center with Gym / Workout Room', 'Room Service', 'Bar/Lounge', 'Spa', 'Free High Speed Internet ( WiFi )', 'Room Service', 'Children Activities (Kid / Family Friendly)', 'Dry Cleaning', 'Business Center with Internet Access', 'Laundry Service', 'Concierge', 'Breakfast Available', 'Meeting Rooms', 'Banquet Room', 'Conference Facilities', 'Air Conditioning', 'Refrigerator in room', 'Minibar', 'Pool', 'Restaurant', 'Fitness Center with Gym / Workout Room', 'Bar/Lounge', 'Spa', 'Heated pool', 'Outdoor pool']",Gansevoort Meatpacking NYC
89,HGNYC454,337.0134715025905,40.75427,-73.99308,78,"['Free Internet', 'Fitness Center with Gym / Workout Room', 'Breakfast included', 'Business Center with Internet Access', 'Breakfast included', 'Dry Cleaning', 'Meeting Rooms', 'Laundry Service', 'Concierge', 'Multilingual Staff', 'Self-Serve Laundry', 'Conference Facilities', 'Microwave', 'Air Conditioning', 'Fitness Center with Gym / Workout Room']","Homewood Suites by Hilton New York/Midtown Manhattan Times Square-South, NY"
90,HHNYC402,427.1778125000001,40.71153,-74.01054,73,"['Pool', 'Restaurant', 'Room Service', 'Fitness Center with Gym / Workout Room', 'Bar/Lounge', 'Free Internet', 'Room Service', 'Business Center with Internet Access', 'Dry Cleaning', 'Meeting Rooms', 'Laundry Service', 'Concierge', 'Banquet Room', 'Multilingual Staff', 'Conference Facilities', 'Air Conditioning', 'Minibar', 'Pool', 'Restaurant', 'Fitness Center with Gym / Workout Room', 'Bar/Lounge', 'Heated pool', 'Indoor pool']",Millennium Hilton New York Downtown
91,HHNYC507,393.9061971830986,40.76206,-73.97899,88,"['Restaurant', 'Fitness Center with Gym / Workout Room', 'Bar/Lounge', 'Business Center with Internet Access', 'Dry Cleaning', 'Meeting Rooms', 'Laundry Service', 'Concierge', 'Banquet Room', 'Multilingual Staff', 'Conference Facilities', 'Self-Serve Laundry', 'Air Conditioning', 'Restaurant', 'Fitness Center with Gym / Workout Room', 'Bar/Lounge']",New York Hilton Midtown
92,HHNYC554,261.7563636363637,40.6898,-73.9882,95,"['Room Service', 'Restaurant', 'Bar/Lounge', 'Free High Speed Internet ( WiFi )', 'Fitness Center with Gym / Workout Room', 'Room Service', 'Dry Cleaning', 'Meeting Rooms', 'Business Center with Internet Access', 'Laundry Service', 'Air Conditioning', 'Restaurant', 'Bar/Lounge', 'Fitness Center with Gym / Workout Room']",Hilton Brooklyn New York
93,HHNYC986,415.9276499999999,40.74911,-73.9721,79,"['Restaurant', 'Room Service', 'Fitness Center with Gym / Workout Room', 'Free Internet', 'Bar/Lounge', 'Business Center with Internet Access', 'Room Service', 'Dry Cleaning', 'Meeting Rooms', 'Laundry Service', 'Concierge', 'Multilingual Staff', 'Conference Facilities', 'Air Conditioning', 'Restaurant', 'Fitness Center with Gym / Workout Room', 'Bar/Lounge']",Hilton New York Grand Central
94,HHNYCHUN,686.489885057471,40.75056,-73.96953,79,"['Free High Speed Internet ( WiFi )', 'Restaurant', 'Fitness Center with Gym / Workout Room', 'Room Service', 'Bar/Lounge', 'Room Service', 'Business Center with Internet Access', 'Dry Cleaning', 'Meeting Rooms', 'Laundry Service', 'Concierge', 'Banquet Room', 'Multilingual Staff', 'Conference Facilities', 'Air Conditioning', 'Restaurant', 'Fitness Center with Gym / Workout Room', 'Bar/Lounge', 'Indoor pool']",Millennium Hilton New York One UN Plaza
95,HIJFK47B,188.55443037974686,40.67776,-73.98396,6,"['Free High Speed Internet ( WiFi )', 'Breakfast included', 'Business Center with Internet Access', 'Breakfast included', 'Laundry Service', 'Multilingual Staff']",Holiday Inn Express Brooklyn
96,HIJFK816,202.4166666666665,40.72659,-73.90645,30,"['Free Parking', 'Free High Speed Internet ( WiFi )', 'Breakfast included', 'Fitness Center with Gym / Workout Room', 'Free Parking', 'Breakfast included', 'Shuttle Bus Service', 'Dry Cleaning', 'Meeting Rooms', 'Business Center with Internet Access', 'Laundry Service', 'Multilingual Staff', 'Self-Serve Laundry', 'Hot Tub', 'Tennis Court', 'Fitness Center with Gym / Workout Room']",Holiday Inn Express Queens - Maspeth
97,HINYC596,251.94117647058823,40.70893,-74.00902,102,"['Free High Speed Internet ( WiFi )', 'Restaurant', 'Fitness Center with Gym / Workout Room', 'Multilingual Staff', 'Dry Cleaning', 'Laundry Service', 'Air Conditioning', 'Restaurant', 'Fitness Center with Gym / Workout Room']",Holiday Inn New York City - Wall Street
98,HINYC9C1,268.2549019607843,40.70541,-74.00705,58,"['Free High Speed Internet ( WiFi )', 'Breakfast included', 'Fitness Center with Gym / Workout Room', 'Breakfast included', 'Multilingual Staff', 'Dry Cleaning', 'Business Center with Internet Access', 'Laundry Service', 'Air Conditioning', 'Fitness Center with Gym / Workout Room']",Holiday Inn Express New York City-Wall Street
99,HINYCB36,249.81578947368422,40.68739,-73.98265,65,"['Pool', 'Room Service', 'Restaurant', 'Bar/Lounge', 'Free High Speed Internet ( WiFi )', 'Fitness Center with Gym / Workout Room', 'Room Service', 'Dry Cleaning', 'Meeting Rooms', 'Business Center with Internet Access', 'Laundry Service', 'Self-Serve Laundry', 'Conference Facilities', 'Banquet Room', 'Air Conditioning', 'Refrigerator in room', 'Pool', 'Restaurant', 'Bar/Lounge', 'Fitness Center with Gym / Workout Room', 'Heated pool', 'Indoor pool']",Holiday Inn Brooklyn Downtown
100,HINYCC4E,161.925,40.58756,-74.19089,19,"['Free Parking', 'Free High Speed Internet ( WiFi )', 'Fitness Center with Gym / Workout Room', 'Breakfast included', 'Free Parking', 'Business Center with Internet Access', 'Breakfast included', 'Multilingual Staff', 'Dry Cleaning', 'Meeting Rooms', 'Laundry Service', 'Fitness Center with Gym / Workout Room', 'Hot Tub']",Holiday Inn Express Staten Island West
101,HINYCD35,331.196,40.75526,-73.99172,15,"['Room Service', 'Restaurant', 'Bar/Lounge', 'Free High Speed Internet ( WiFi )', 'Fitness Center with Gym / Workout Room', 'Room Service', 'Dry Cleaning', 'Business Center with Internet Access', 'Laundry Service', 'Concierge', 'Multilingual Staff', 'Air Conditioning', 'Restaurant', 'Bar/Lounge', 'Fitness Center with Gym / Workout Room']",Holiday Inn New York City - Times Square
102,HINYCE8C,284.2,40.7183,-73.98623,62,"['Free High Speed Internet ( WiFi )', 'Fitness Center with Gym / Workout Room', 'Room Service', 'Restaurant', 'Bar/Lounge', 'Room Service', 'Dry Cleaning', 'Business Center with Internet Access', 'Laundry Service', 'Multilingual Staff', 'Air Conditioning', 'Fitness Center with Gym / Workout Room', 'Restaurant', 'Bar/Lounge']",Holiday Inn NYC - Lower East Side
103,HINYCEDE,202.9833333333334,40.81814,-73.9304,49,"['$168 - $250 (Based on Average Rates for a Standard Room) ', '85 ', 'TripAdvisor is proud to partner with Booking.com, Hotels.com, Expedia, Travelocity, Orbitz and IHG so you can book your Holiday Inn Express - Bronx NYC - Stadium Area reservations with confidence. We help millions of travelers each month to find the perfect hotel for both vacation and business trips, always with the best discounts and special offers. ', 'United States >', 'New York >', 'Bronx ']",Holiday Inn Express - Bronx NYC - Stadium Area
104,HINYCEED,206.1578947368421,40.7211,-73.81777,59,"['Restaurant', 'Free High Speed Internet ( WiFi )', 'Free Parking', 'Room Service', 'Bar/Lounge', 'Fitness Center with Gym / Workout Room', 'Free Parking', 'Shuttle Bus Service', 'Room Service', 'Dry Cleaning', 'Meeting Rooms', 'Business Center with Internet Access', 'Laundry Service', 'Multilingual Staff', 'Self-Serve Laundry', 'Air Conditioning', 'Restaurant', 'Bar/Lounge', 'Fitness Center with Gym / Workout Room']",Holiday Inn New York JFK Airport Area
105,HJLGA294,188.97090909090912,40.75685,-73.94198,9,"['Free High Speed Internet ( WiFi )', 'Room Service', 'Breakfast included', 'Fitness Center with Gym / Workout Room', 'Room Service', 'Breakfast included', 'Air Conditioning', 'Fitness Center with Gym / Workout Room']",Howard Johnson Long Island City
106,HJLGA826,176.5408163265306,40.83973,-73.88132,40,"['Free Parking', 'Free High Speed Internet ( WiFi )', 'Breakfast included', 'Room Service', 'Free Parking', 'Breakfast included', 'Room Service', 'Multilingual Staff', 'Business Center with Internet Access', 'Self-Serve Laundry', 'Air Conditioning', 'Microwave']",Howard Johnson Express Inn Bronx
107,HONYCFQG,254.444,40.76032,-73.98978,99,"['Restaurant', 'Bar/Lounge', 'Free High Speed Internet ( WiFi )', 'Breakfast included', 'Breakfast included', 'Dry Cleaning', 'Laundry Service', 'Air Conditioning', 'Refrigerator in room', 'Restaurant', 'Bar/Lounge']",The French Quarters Guest Apartments
108,HXEWR112,151.3105084745762,40.61305,-74.17509,33,"['Pool', 'Free Parking', 'Free High Speed Internet ( WiFi )', 'Fitness Center with Gym / Workout Room', 'Breakfast included', 'Business Center with Internet Access', 'Free Parking', 'Breakfast included', 'Meeting Rooms', 'Multilingual Staff', 'Conference Facilities', 'Airport Transportation', 'Dry Cleaning', 'Laundry Service', 'Air Conditioning', 'Refrigerator in room', 'Microwave', 'Pool', 'Fitness Center with Gym / Workout Room', 'Heated pool', 'Indoor pool']",Hampton Inn & Suites Staten Island
109,HXNYC144,161.8379365079364,40.66746,-73.79487,91,"['Free High Speed Internet ( WiFi )', 'Fitness Center with Gym / Workout Room', 'Breakfast included', 'Shuttle Bus Service', 'Breakfast included', 'Business Center with Internet Access', 'Airport Transportation', 'Meeting Rooms', 'Laundry Service', 'Multilingual Staff', 'Conference Facilities', 'Dry Cleaning', 'Fitness Center with Gym / Workout Room']",Hampton Inn NY - JFK
110,HXNYC320,269.51655172413786,40.70906,-74.00199,116,"['Free High Speed Internet ( WiFi )', 'Fitness Center with Gym / Workout Room', 'Breakfast included', 'Breakfast included', 'Multilingual Staff', 'Dry Cleaning', 'Meeting Rooms', 'Business Center with Internet Access', 'Laundry Service', 'Fitness Center with Gym / Workout Room']",Hampton Inn Manhattan-Seaport-Financial District
111,HXNYC337,288.63490566037734,40.75633,-73.99303,15,"['Fitness Center with Gym / Workout Room', 'Free High Speed Internet ( WiFi )', 'Breakfast included', 'Business Center with Internet Access', 'Breakfast included', 'Dry Cleaning', 'Laundry Service', 'Concierge', 'Multilingual Staff', 'Fitness Center with Gym / Workout Room']",Hampton Inn Manhattan/Times Square South
112,HXNYC432,289.32466666666653,40.70312,-74.01228,53,"['Free High Speed Internet ( WiFi )', 'Breakfast included', 'Fitness Center with Gym / Workout Room', 'Breakfast included', 'Business Center with Internet Access', 'Laundry Service', 'Air Conditioning', 'Fitness Center with Gym / Workout Room']",Hampton Inn Manhattan / Downtown - Financial District
113,HXNYC851,271.73803493449793,40.76297,-73.98566,52,"['Fitness Center with Gym / Workout Room', 'Free Internet', 'Breakfast included', 'Business Center with Internet Access', 'Breakfast included', 'Dry Cleaning', 'Meeting Rooms', 'Laundry Service', 'Concierge', 'Multilingual Staff', 'Air Conditioning', 'Fitness Center with Gym / Workout Room']",Hampton Inn Manhattan-Times Square North
114,HXNYC897,324.79181818181814,40.75095,-73.97217,79,"['Fitness Center with Gym / Workout Room', 'Free Internet', 'Breakfast included', 'Breakfast included', 'Dry Cleaning', 'Meeting Rooms', 'Business Center with Internet Access', 'Laundry Service', 'Multilingual Staff', 'Air Conditioning', 'Fitness Center with Gym / Workout Room']",Hampton Inn Manhattan Grand Central
115,HXNYC903,223.875375,40.69568,-73.98396,101,"['Fitness Center with Gym / Workout Room', 'Bar/Lounge', 'Free High Speed Internet ( WiFi )', 'Breakfast included', 'Breakfast included', 'Dry Cleaning', 'Business Center with Internet Access', 'Laundry Service', 'Multilingual Staff', 'Air Conditioning', 'Fitness Center with Gym / Workout Room', 'Bar/Lounge']",Hampton Inn Brooklyn/Downtown
116,HYLGAZL2,225.7628571428571,40.74817,-73.94127,85,"['$159 - $287 (Based on Average Rates for a Standard Room) ', 'TripAdvisor is proud to partner with Expedia, Travelocity, Hyatt Hotels Corporation, Hotels.com, Orbitz and Booking.com so you can book your Hyatt Place Long Island City / New York City reservations with confidence. We help millions of travelers each month to find the perfect hotel for both vacation and business trips, always with the best discounts and special offers. ', 'United States >', 'New York >', 'Queens >', 'Long Island City ', 'Hyatt Place Long Island City / New York City ']",Hyatt Place Long Island City / New York City
117,HYNYCHHH,440.32363636363647,40.747,-73.98763,110,"['Free High Speed Internet ( WiFi )', 'Restaurant', 'Fitness Center with Gym / Workout Room', 'Bar/Lounge', 'Room Service', 'Laundry Service', 'Concierge', 'Multilingual Staff', 'Room Service', 'Dry Cleaning', 'Business Center with Internet Access', 'Air Conditioning', 'Refrigerator in room', 'Restaurant', 'Fitness Center with Gym / Workout Room', 'Bar/Lounge']",Hyatt Herald Square New York
118,HYNYCHNY,510.96460431654646,40.75204,-73.97672,45,"['Restaurant', 'Fitness Center with Gym / Workout Room', 'Bar/Lounge', 'Room Service', 'Business Center with Internet Access', 'Meeting Rooms', 'Dry Cleaning', 'Laundry Service', 'Concierge', 'Banquet Room', 'Room Service', 'Multilingual Staff', 'Conference Facilities', 'Breakfast Available', 'Air Conditioning', 'Restaurant', 'Fitness Center with Gym / Workout Room', 'Bar/Lounge']",Grand Hyatt New York
119,HYNYCNHR,423.140625,40.74628,-73.9907,55,"['Room Service', 'Bar/Lounge', 'Free High Speed Internet ( WiFi )', 'Breakfast included', 'Fitness Center with Gym / Workout Room', 'Room Service', 'Airport Transportation', 'Breakfast included', 'Laundry Service', 'Dry Cleaning', 'Business Center with Internet Access', 'Concierge', 'Multilingual Staff', 'Self-Serve Laundry', 'Air Conditioning', 'Refrigerator in room', 'Microwave', 'Bar/Lounge', 'Fitness Center with Gym / Workout Room']",Hyatt House New York/Chelsea
120,HYNYCPNY,2197.5,40.76538,-73.97896,125,"['Free High Speed Internet ( WiFi )', 'Fitness Center with Gym / Workout Room', 'Room Service', 'Room Service', 'Dry Cleaning', 'Meeting Rooms', 'Laundry Service', 'Concierge', 'Banquet Room', 'Multilingual Staff', 'Conference Facilities', 'Babysitting', 'Breakfast Available', 'Air Conditioning', 'Refrigerator in room', 'Minibar', 'Fitness Center with Gym / Workout Room', 'Hot Tub', 'Heated pool', 'Indoor pool']",Park Hyatt New York
121,HYNYCSIM,445.0428571428572,40.7504,-73.98582,61,"['Free High Speed Internet ( WiFi )', 'Room Service', 'Bar/Lounge', 'Breakfast included', 'Fitness Center with Gym / Workout Room', 'Restaurant', 'Room Service', 'Airport Transportation', 'Breakfast included', 'Business Center with Internet Access', 'Laundry Service', 'Concierge', 'Multilingual Staff', 'Dry Cleaning', 'Air Conditioning', 'Refrigerator in room', 'Bar/Lounge', 'Fitness Center with Gym / Workout Room', 'Restaurant']",Hyatt Place New York Midtown South
122,HYNYCTSQ,593.5978915662653,40.75757,-73.98403,103,"['Restaurant', 'Bar/Lounge', 'Free High Speed Internet ( WiFi )', 'Room Service', 'Spa', 'Fitness Center with Gym / Workout Room', 'Room Service', 'Dry Cleaning', 'Meeting Rooms', 'Business Center with Internet Access', 'Laundry Service', 'Concierge', 'Banquet Room', 'Multilingual Staff', 'Conference Facilities', 'Air Conditioning', 'Refrigerator in room', 'Restaurant', 'Bar/Lounge', 'Spa', 'Fitness Center with Gym / Workout Room']",Hyatt Centric Times Square New York
123,IQNYC017,200.1764705882353,40.75736,-73.98112,69,"['Free High Speed Internet ( WiFi )', 'Fitness Center with Gym / Workout Room', 'Bar/Lounge', 'Breakfast included', 'Breakfast included', 'Laundry Service', 'Concierge', 'Air Conditioning', 'Fitness Center with Gym / Workout Room', 'Bar/Lounge']",The Hotel at Times Square
124,IQNYC041,170.0,40.75813,-73.98343,103,"['Fitness Center with Gym / Workout Room', 'Free High Speed Internet ( WiFi )', 'Breakfast included', 'Breakfast included', 'Laundry Service', 'Concierge', 'Air Conditioning', 'Fitness Center with Gym / Workout Room']",Broadway at Times Square Hotel
125,IQNYCUSM,357.5925925925926,40.73243,-73.99665,56,"['Restaurant', 'Free High Speed Internet ( WiFi )', 'Dry Cleaning', 'Laundry Service', 'Concierge', 'Air Conditioning', 'Minibar', 'Restaurant']",The Marlton Hotel
126,LEJFK129,281.03846153846155,40.70523,-74.00633,58,"['Free High Speed Internet ( WiFi )', 'Bar/Lounge', 'Laundry Service', 'Dry Cleaning', 'Meeting Rooms', 'Business Center with Internet Access', 'Concierge', 'Multilingual Staff', 'Self-Serve Laundry', 'Air Conditioning', 'Microwave', 'Bar/Lounge']",Eurostars Wall Street
127,LQNYC328,135.46764705882353,40.66904,-73.99303,67,"['Free High Speed Internet ( WiFi )', 'Breakfast included', 'Breakfast included', 'Business Center with Internet Access', 'Multilingual Staff', 'Air Conditioning', 'Refrigerator in room']",La Quinta Inn & Suites Brooklyn Downtown
128,LQNYC570,140.91489361702128,40.67861,-73.95014,21,"['Pool', 'Free Parking', 'Free High Speed Internet ( WiFi )', 'Breakfast included', 'Fitness Center with Gym / Workout Room', 'Free Parking', 'Breakfast included', 'Business Center with Internet Access', 'Pool', 'Fitness Center with Gym / Workout Room']",La Quinta Inn & Suites Brooklyn Central
129,LQNYC571,189.6886363636364,40.66834,-73.92039,57,['Free High Speed Internet ( WiFi )'],La Quinta Inn & Suites Brooklyn East
130,LQNYC751,202.57142857142858,40.74809,-73.98756,110,"['Fitness Center with Gym / Workout Room', 'Bar/Lounge', 'Free High Speed Internet ( WiFi )', 'Breakfast included', 'Business Center with Internet Access', 'Airport Transportation', 'Breakfast included', 'Laundry Service', 'Concierge', 'Fitness Center with Gym / Workout Room', 'Bar/Lounge']",La Quinta Inn & Suites Manhattan
131,LQNYC871,234.27777777777777,40.77626,-73.97762,84,"['Free High Speed Internet ( WiFi )', 'Breakfast included', 'Breakfast included', 'Air Conditioning']",La Quinta Inn & Suites New York City Central Park
132,LVNYCCLI,304.378431372549,40.74722,-73.98699,110,"['Free High Speed Internet ( WiFi )', 'Laundry Service', 'Multilingual Staff', 'Breakfast Available', 'Air Conditioning']",Life Hotel
133,MCLGAAPM,265.68518518518516,40.76901,-73.86847,20,"['Restaurant', 'Room Service', 'Fitness Center with Gym / Workout Room', 'Bar/Lounge', 'Room Service', 'Business Center with Internet Access', 'Shuttle Bus Service', 'Airport Transportation', 'Dry Cleaning', 'Meeting Rooms', 'Concierge', 'Banquet Room', 'Multilingual Staff', 'Conference Facilities', 'Breakfast Available', 'Restaurant', 'Fitness Center with Gym / Workout Room', 'Bar/Lounge']",New York LaGuardia Airport Marriott
134,MCLGABKM,569.504,40.69384,-73.98916,37,"['Pool', 'Restaurant', 'Fitness Center with Gym / Workout Room', 'Bar/Lounge', 'Room Service', 'Business Center with Internet Access', 'Meeting Rooms', 'Dry Cleaning', 'Concierge', 'Banquet Room', 'Conference Facilities', 'Room Service', 'Laundry Service', 'Multilingual Staff', 'Pool', 'Restaurant', 'Fitness Center with Gym / Workout Room', 'Bar/Lounge', 'Hot Tub', 'Indoor pool', 'Heated pool']",New York Marriott at the Brooklyn Bridge
135,MCNYCEXM,1196.7481818181814,40.76545,-73.97671,97,"['Restaurant', 'Fitness Center with Gym / Workout Room', 'Room Service', 'Bar/Lounge', 'Spa', 'Room Service', 'Business Center with Internet Access', 'Airport Transportation', 'Dry Cleaning', 'Meeting Rooms', 'Laundry Service', 'Concierge', 'Banquet Room', 'Multilingual Staff', 'Conference Facilities', 'Breakfast Available', 'Restaurant', 'Fitness Center with Gym / Workout Room', 'Bar/Lounge', 'Spa']",JW Marriott Essex House New York
136,MCNYCWSM,393.01612903225805,40.70975,-74.01468,10,"['Restaurant', 'Fitness Center with Gym / Workout Room', 'Bar/Lounge', 'Business Center with Internet Access', 'Dry Cleaning', 'Meeting Rooms', 'Laundry Service', 'Concierge', 'Banquet Room', 'Multilingual Staff', 'Conference Facilities', 'Restaurant', 'Fitness Center with Gym / Workout Room', 'Bar/Lounge']",New York Marriott Downtown
137,MONYCMO1,2348.0526315789475,40.76901,-73.98293,86,"['Pool', 'Restaurant', 'Room Service', 'Fitness Center with Gym / Workout Room', 'Bar/Lounge', 'Spa', 'Free Internet', 'Business Center with Internet Access', 'Room Service', 'Dry Cleaning', 'Meeting Rooms', 'Laundry Service', 'Concierge', 'Banquet Room', 'Multilingual Staff', 'Conference Facilities', 'Babysitting', 'Air Conditioning', 'Minibar', 'Pool', 'Restaurant', 'Fitness Center with Gym / Workout Room', 'Bar/Lounge', 'Spa', 'Hot Tub', 'Heated pool', 'Indoor pool']","Mandarin Oriental, New York"
138,MRNYCSPA,610.2513888888892,40.74477,-73.98317,92,"['Restaurant', 'Restaurant']",Mondrian Park Avenue
139,NYNYC105,576.8900000000001,40.75624,-73.97207,70,"['Restaurant', 'Fitness Center with Gym / Workout Room', 'Room Service', 'Bar/Lounge', 'Room Service', 'Business Center with Internet Access', 'Dry Cleaning', 'Meeting Rooms', 'Laundry Service', 'Concierge', 'Banquet Room', 'Multilingual Staff', 'Conference Facilities', 'Breakfast Available', 'Restaurant', 'Fitness Center with Gym / Workout Room', 'Bar/Lounge']",The Benjamin
140,NYNYCTJA,576.3099415204679,40.719,-73.99646,66,"['Free High Speed Internet ( WiFi )', 'Fitness Center with Gym / Workout Room', 'Room Service', 'Restaurant', 'Bar/Lounge', 'Pool', 'Room Service', 'Business Center with Internet Access', 'Dry Cleaning', 'Laundry Service', 'Concierge', 'Multilingual Staff', 'Babysitting', 'Breakfast Available', 'Fitness Center with Gym / Workout Room', 'Restaurant', 'Bar/Lounge', 'Pool']",The James New York - SoHo
141,NYNYCTJN,377.1965217391304,40.74463,-73.98524,7,"['Free Internet', 'Restaurant', 'Bar/Lounge', 'Fitness Center with Gym / Workout Room', 'Business Center with Internet Access', 'Laundry Service', 'Concierge', 'Multilingual Staff', 'Conference Facilities', 'Dry Cleaning', 'Meeting Rooms', 'Banquet Room', 'Air Conditioning', 'Minibar', 'Restaurant', 'Bar/Lounge', 'Fitness Center with Gym / Workout Room']",The James New York-NoMad
142,NZLGA507,163.95555555555572,40.68005,-74.00593,29,"['Breakfast included', 'Spa', 'Free High Speed Internet ( WiFi )', 'Fitness Center with Gym / Workout Room', 'Breakfast included', 'Multilingual Staff', 'Air Conditioning', 'Spa', 'Fitness Center with Gym / Workout Room']","The LOOK hotel, Red Hook, an Ascend Hotel Collection Member"
143,NZNYC425,268.6940298507463,40.72385,-73.99147,106,"['Free High Speed Internet ( WiFi )', 'Fitness Center with Gym / Workout Room', 'Dry Cleaning', 'Laundry Service', 'Concierge', 'Multilingual Staff', 'Air Conditioning', 'Fitness Center with Gym / Workout Room', 'Hot Tub']",The Gatsby Hotel
144,NZNYC569,178.94545454545425,40.67784,-73.98345,6,"['$113 - $304 (Based on Average Rates for a Standard Room) ', '76 ', 'TripAdvisor is proud to partner with Hotels.com, Orbitz, Booking.com, Expedia, Priceline and Agoda so you can book your Gowanus Inn and Yard reservations with confidence. We help millions of travelers each month to find the perfect hotel for both vacation and business trips, always with the best discounts and special offers. ', 'United States >', 'New York >', 'Brooklyn ']",Gowanus Inn and Yard
145,OKLGA069,193.0,40.73617,-73.9342,39,"['Free Parking', 'Breakfast included', 'Room Service', 'Restaurant', 'Free High Speed Internet ( WiFi )', 'Free Parking', 'Breakfast included', 'Shuttle Bus Service', 'Room Service', 'Meeting Rooms', 'Business Center with Internet Access', 'Laundry Service', 'Concierge', 'Self-Serve Laundry', 'Microwave', 'Restaurant', 'Tennis Court']",City View Inn
146,OKNYCP39,199.25,40.74939,-73.97695,128,"['Free High Speed Internet ( WiFi )', 'Restaurant', 'Bar/Lounge', 'Airport Transportation', 'Laundry Service', 'Concierge', 'Multilingual Staff', 'Air Conditioning', 'Restaurant', 'Bar/Lounge']",Pod 39 Hotel
147,OKNYCP51,177.33333333333334,40.75609,-73.96959,3,"['Free High Speed Internet ( WiFi )', 'Bar/Lounge', 'Concierge', 'Multilingual Staff', 'Air Conditioning', 'Bar/Lounge']",Pod 51 Hotel
148,OXNYCOXO,324.8070175438597,40.75246,-73.98949,104,"['Restaurant', 'Bar/Lounge', 'Free High Speed Internet ( WiFi )', 'Fitness Center with Gym / Workout Room', 'Meeting Rooms', 'Banquet Room', 'Conference Facilities', 'Breakfast Available', 'Air Conditioning', 'Restaurant', 'Bar/Lounge', 'Fitness Center with Gym / Workout Room']",Moxy NYC Times Square
149,OZLGA886,157.1499999999999,40.76634,-73.93358,47,"['Breakfast included', 'Room Service', 'Free High Speed Internet ( WiFi )', 'Free Parking', 'Breakfast included', 'Room Service', 'Free Parking', 'Air Conditioning', 'Hot Tub']",Super 8 Long Island City LGA Hotel
150,PHNYCHPL,448.9661057692314,40.76482,-73.97532,97,"['Restaurant', 'Room Service', 'Bar/Lounge', 'Fitness Center with Gym / Workout Room', 'Room Service', 'Business Center with Internet Access', 'Meeting Rooms', 'Laundry Service', 'Concierge', 'Banquet Room', 'Multilingual Staff', 'Dry Cleaning', 'Conference Facilities', 'Air Conditioning', 'Restaurant', 'Bar/Lounge', 'Fitness Center with Gym / Workout Room']",Park Lane Hotel
151,PHNYCNMS,567.8531627906982,40.71988,-74.00015,105,"['Restaurant', 'Free High Speed Internet ( WiFi )', 'Room Service', 'Bar/Lounge', 'Fitness Center with Gym / Workout Room', 'Room Service', 'Dry Cleaning', 'Concierge', 'Multilingual Staff', 'Meeting Rooms', 'Banquet Room', 'Air Conditioning', 'Refrigerator in room', 'Minibar', 'Restaurant', 'Bar/Lounge', 'Fitness Center with Gym / Workout Room']",NOMO SOHO Hotel
152,PHNYCSNH,1175.7291666666667,40.76433,-73.97252,51,"['Room Service', 'Restaurant', 'Free High Speed Internet ( WiFi )', 'Fitness Center with Gym / Workout Room', 'Bar/Lounge', 'Room Service', 'Children Activities (Kid / Family Friendly)', 'Dry Cleaning', 'Business Center with Internet Access', 'Laundry Service', 'Concierge', 'Multilingual Staff', 'Meeting Rooms', 'Air Conditioning', 'Minibar', 'Restaurant', 'Fitness Center with Gym / Workout Room', 'Bar/Lounge']",The Sherry-Netherland Hotel
153,PHNYCWSH,471.92857142857144,40.70798,-74.00771,102,"['Restaurant', 'Free High Speed Internet ( WiFi )', 'Fitness Center with Gym / Workout Room', 'Bar/Lounge', 'Laundry Service', 'Dry Cleaning', 'Business Center with Internet Access', 'Air Conditioning', 'Refrigerator in room', 'Restaurant', 'Fitness Center with Gym / Workout Room', 'Bar/Lounge']",AKA Wall Street
154,PNNYC772,1826.7207792207791,40.76724,-73.98844,112,"['Pool', 'Room Service', 'Restaurant', 'Fitness Center with Gym / Workout Room', 'Free High Speed Internet ( WiFi )', 'Bar/Lounge', 'Spa', 'Room Service', 'Children Activities (Kid / Family Friendly)', 'Dry Cleaning', 'Meeting Rooms', 'Business Center with Internet Access', 'Laundry Service', 'Concierge', 'Banquet Room', 'Multilingual Staff', 'Conference Facilities', 'Babysitting', 'Breakfast Available', 'Air Conditioning', 'Refrigerator in room', 'Minibar', 'Pool', 'Restaurant', 'Fitness Center with Gym / Workout Room', 'Bar/Lounge', 'Spa', 'Heated pool', 'Indoor pool', 'Tennis Court']",The Peninsula New York
155,PWNYC087,326.0296296296297,40.74094,-73.98335,127,"['Free High Speed Internet ( WiFi )', 'Breakfast included', 'Breakfast included', 'Laundry Service', 'Concierge', 'Multilingual Staff', 'Air Conditioning']",The Lex NYC
156,PWNYC383,591.25,40.72605,-73.99168,0,"['Restaurant', 'Room Service', 'Free High Speed Internet ( WiFi )', 'Bar/Lounge', 'Fitness Center with Gym / Workout Room', 'Room Service', 'Dry Cleaning', 'Laundry Service', 'Concierge', 'Meeting Rooms', 'Babysitting', 'Air Conditioning', 'Minibar', 'Restaurant', 'Bar/Lounge', 'Fitness Center with Gym / Workout Room']",The Bowery Hotel
157,PWNYC424,317.440909090909,40.7566,-73.99287,15,"['Free High Speed Internet ( WiFi )', 'Restaurant', 'Bar/Lounge', 'Laundry Service', 'Concierge', 'Multilingual Staff', 'Airport Transportation', 'Dry Cleaning', 'Breakfast Available', 'Air Conditioning', 'Refrigerator in room', 'Restaurant', 'Bar/Lounge']",Distrikt Hotel New York City
158,PWNYCDYL,308.9770833333331,40.75192,-73.97937,45,"['Restaurant', 'Free High Speed Internet ( WiFi )', 'Fitness Center with Gym / Workout Room', 'Room Service', 'Bar/Lounge', 'Multilingual Staff', 'Room Service', 'Dry Cleaning', 'Meeting Rooms', 'Laundry Service', 'Concierge', 'Restaurant', 'Fitness Center with Gym / Workout Room', 'Bar/Lounge']",Dylan Hotel NYC
159,QILGA400,131.75647058823523,40.75163,-73.93385,60,"['Free High Speed Internet ( WiFi )', 'Breakfast included', 'Breakfast included', 'Multilingual Staff', 'Air Conditioning']",Quality Inn Long Island City
160,QINYC634,129.73333333333343,40.65088,-74.01161,13,"['Free High Speed Internet ( WiFi )', 'Breakfast included', 'Breakfast included', 'Air Conditioning']",Quality Inn
161,RALGA433,104.45945945945945,40.75482,-73.93677,75,"['Free High Speed Internet ( WiFi )', 'Breakfast included', 'Breakfast included', 'Air Conditioning']",Ramada Long Island City
162,RALGA854,253.6370588235293,40.76156,-73.83257,11,"['Free High Speed Internet ( WiFi )', 'Breakfast included', 'Fitness Center with Gym / Workout Room', 'Breakfast included', 'Shuttle Bus Service', 'Business Center with Internet Access', 'Air Conditioning', 'Fitness Center with Gym / Workout Room']",Ramada Flushing Queens
163,RANYC038,197.78311594202907,40.87975,-73.83186,32,"['Free Parking', 'Breakfast included', 'Free High Speed Internet ( WiFi )', 'Free Parking', 'Breakfast included', 'Multilingual Staff', 'Business Center with Internet Access', 'Air Conditioning', 'Hot Tub']",Ramada Bronx
164,RANYC951,163.01341463414613,40.60828,-74.14617,2,"['Free Parking', 'Free High Speed Internet ( WiFi )', 'Breakfast included', 'Fitness Center with Gym / Workout Room', 'Free Parking', 'Breakfast included', 'Shuttle Bus Service', 'Meeting Rooms', 'Business Center with Internet Access', 'Multilingual Staff', 'Fitness Center with Gym / Workout Room']",Ramada Staten Island
165,RCNYCBXR,267.2,40.84944,-73.84269,22,"['Free High Speed Internet ( WiFi )', 'Free Parking', 'Bar/Lounge', 'Breakfast included', 'Fitness Center with Gym / Workout Room', 'Free Parking', 'Breakfast included', 'Dry Cleaning', 'Meeting Rooms', 'Business Center with Internet Access', 'Laundry Service', 'Self-Serve Laundry', 'Banquet Room', 'Breakfast Available', 'Air Conditioning', 'Refrigerator in room', 'Microwave', 'Bar/Lounge', 'Fitness Center with Gym / Workout Room']",Residence Inn By Marriott New York The Bronx at Metro Center Atrium
166,RCNYCHAR,487.3452380952381,40.75502,-73.97286,70,"['Free High Speed Internet ( WiFi )', 'Fitness Center with Gym / Workout Room', 'Breakfast included', 'Breakfast included', 'Dry Cleaning', 'Meeting Rooms', 'Business Center with Internet Access', 'Laundry Service', 'Concierge', 'Multilingual Staff', 'Self-Serve Laundry', 'Air Conditioning', 'Microwave', 'Refrigerator in room', 'Fitness Center with Gym / Workout Room']",Residence Inn New York Manhattan / Midtown East
167,RCNYCRLR,408.8452380952381,40.70953,-74.00981,102,"['Free High Speed Internet ( WiFi )', 'Breakfast included', 'Fitness Center with Gym / Workout Room', 'Breakfast included', 'Dry Cleaning', 'Meeting Rooms', 'Business Center with Internet Access', 'Laundry Service', 'Concierge', 'Multilingual Staff', 'Self-Serve Laundry', 'Air Conditioning', 'Microwave', 'Refrigerator in room', 'Fitness Center with Gym / Workout Room']",Residence Inn New York Downtown Manhattan/World Trade Center Area
168,RDNYC879,237.865,40.66744,-73.7981,48,"['Free High Speed Internet ( WiFi )', 'Bar/Lounge', 'Restaurant', 'Fitness Center with Gym / Workout Room', 'Shuttle Bus Service', 'Airport Transportation', 'Meeting Rooms', 'Business Center with Internet Access', 'Laundry Service', 'Conference Facilities', 'Dry Cleaning', 'Concierge', 'Banquet Room', 'Multilingual Staff', 'Breakfast Available', 'Air Conditioning', 'Bar/Lounge', 'Restaurant', 'Fitness Center with Gym / Workout Room']",Radisson Hotel JFK Airport
169,RLJFK964,166.2549019607843,40.69437,-73.93107,41,"['Bar/Lounge', 'Free High Speed Internet ( WiFi )', 'Fitness Center with Gym / Workout Room', 'Restaurant', 'Business Center with Internet Access', 'Banquet Room', 'Multilingual Staff', 'Air Conditioning', 'Bar/Lounge', 'Fitness Center with Gym / Workout Room', 'Restaurant']",Hotel RL by Red Lion Brooklyn
170,RYLGA324,158.38666666666668,40.87021,-73.87779,5,"['Free Parking', 'Free High Speed Internet ( WiFi )', 'Breakfast included', 'Fitness Center with Gym / Workout Room', 'Room Service', 'Free Parking', 'Breakfast included', 'Room Service', 'Business Center with Internet Access', 'Multilingual Staff', 'Air Conditioning', 'Fitness Center with Gym / Workout Room']",Rodeway Inn Bronx Zoo
171,RZNYCCPZ,2217.222222222222,40.7673,-73.98009,125,"['Restaurant', 'Room Service', 'Fitness Center with Gym / Workout Room', 'Bar/Lounge', 'Spa', 'Free Internet', 'Business Center with Internet Access', 'Room Service', 'Dry Cleaning', 'Meeting Rooms', 'Laundry Service', 'Concierge', 'Banquet Room', 'Multilingual Staff', 'Conference Facilities', 'Babysitting', 'Breakfast Available', 'Air Conditioning', 'Minibar', 'Restaurant', 'Fitness Center with Gym / Workout Room', 'Bar/Lounge', 'Spa']","The Ritz-Carlton New York, Central Park"
172,RZNYCRDZ,1299.5402298850574,40.70557,-74.01739,109,"['Restaurant', 'Room Service', 'Fitness Center with Gym / Workout Room', 'Spa', 'Bar/Lounge', 'Business Center with Internet Access', 'Room Service', 'Dry Cleaning', 'Meeting Rooms', 'Laundry Service', 'Concierge', 'Banquet Room', 'Multilingual Staff', 'Conference Facilities', 'Air Conditioning', 'Restaurant', 'Fitness Center with Gym / Workout Room', 'Spa', 'Bar/Lounge']","The Ritz-Carlton New York, Battery Park"
173,SCNYC008,232.7486842105262,40.70458,-74.01027,53,"['Free High Speed Internet ( WiFi )', 'Breakfast included', 'Room Service', 'Fitness Center with Gym / Workout Room', 'Breakfast included', 'Multilingual Staff', 'Room Service', 'Dry Cleaning', 'Meeting Rooms', 'Business Center with Internet Access', 'Laundry Service', 'Air Conditioning', 'Tennis Court', 'Fitness Center with Gym / Workout Room']",The Wall Street Inn
174,SCNYC565,160.43750000000006,40.76357,-73.83004,100,"['Free Parking', 'Free High Speed Internet ( WiFi )', 'Free Parking', 'Airport Transportation', 'Multilingual Staff', 'Air Conditioning', 'Refrigerator in room']",Hotel de Point
175,SINYC052,357.66,40.7212,-74.0042,27,"['Restaurant', 'Fitness Center with Gym / Workout Room', 'Bar/Lounge', 'Room Service', 'Free Internet', 'Business Center with Internet Access', 'Room Service', 'Dry Cleaning', 'Meeting Rooms', 'Laundry Service', 'Concierge', 'Multilingual Staff', 'Conference Facilities', 'Breakfast Available', 'Air Conditioning', 'Restaurant', 'Fitness Center with Gym / Workout Room', 'Bar/Lounge']",Sheraton Tribeca New York Hotel
176,SINYC537,334.75,40.72721,-74.00604,77,"['Restaurant', 'Free High Speed Internet ( WiFi )', 'Bar/Lounge', 'Room Service', 'Fitness Center with Gym / Workout Room', 'Dry Cleaning', 'Breakfast Available', 'Room Service', 'Meeting Rooms', 'Business Center with Internet Access', 'Laundry Service', 'Multilingual Staff', 'Air Conditioning', 'Restaurant', 'Bar/Lounge', 'Fitness Center with Gym / Workout Room']",Four Points by Sheraton Manhattan SoHo Village
177,SINYC540,196.56070422535194,40.75445,-73.93581,75,"['Restaurant', 'Free High Speed Internet ( WiFi )', 'Fitness Center with Gym / Workout Room', 'Room Service', 'Bar/Lounge', 'Business Center with Internet Access', 'Room Service', 'Dry Cleaning', 'Meeting Rooms', 'Laundry Service', 'Banquet Room', 'Multilingual Staff', 'Conference Facilities', 'Air Conditioning', 'Restaurant', 'Fitness Center with Gym / Workout Room', 'Bar/Lounge']",Four Points by Sheraton Long Island City Queensboro Bridge
178,SINYC642,337.47612903225803,40.70747,-74.0062,58,"['Room Service', 'Restaurant', 'Bar/Lounge', 'Free High Speed Internet ( WiFi )', 'Fitness Center with Gym / Workout Room', 'Room Service', 'Dry Cleaning', 'Business Center with Internet Access', 'Laundry Service', 'Breakfast Available', 'Air Conditioning', 'Restaurant', 'Bar/Lounge', 'Fitness Center with Gym / Workout Room']",Four Points by Sheraton New York Downtown
179,SINYC713,306.67771084337335,40.7564,-73.9919,15,"['Restaurant', 'Free High Speed Internet ( WiFi )', 'Fitness Center with Gym / Workout Room', 'Room Service', 'Bar/Lounge', 'Business Center with Internet Access', 'Room Service', 'Dry Cleaning', 'Meeting Rooms', 'Concierge', 'Multilingual Staff', 'Breakfast Available', 'Air Conditioning', 'Restaurant', 'Fitness Center with Gym / Workout Room', 'Bar/Lounge']",Four Points by Sheraton Midtown - Times Square
180,SKNYCWPK,1286.4166666666667,40.76749,-73.9832,86,"['Restaurant', 'Free Internet', 'Bar/Lounge', 'Room Service', 'Dry Cleaning', 'Laundry Service', 'Concierge', 'Room Service', 'Multilingual Staff', 'Restaurant', 'Bar/Lounge']",6 Columbus - A SIXTY Hotel
181,SZJFK394,145.81071428571425,40.66881,-73.78179,123,"['Free High Speed Internet ( WiFi )', 'Breakfast included', 'Fitness Center with Gym / Workout Room', 'Room Service', 'Shuttle Bus Service', 'Airport Transportation', 'Breakfast included', 'Breakfast Available', 'Room Service', 'Dry Cleaning', 'Business Center with Internet Access', 'Laundry Service', 'Concierge', 'Multilingual Staff', 'Air Conditioning', 'Refrigerator in room', 'Fitness Center with Gym / Workout Room']",Sleep Inn JFK Airport Rockaway Blvd
182,SZLGA484,142.80769230769246,40.66302,-73.99766,46,"['Free Parking', 'Breakfast included', 'Free High Speed Internet ( WiFi )', 'Free Parking', 'Breakfast included', 'Business Center with Internet Access', 'Multilingual Staff', 'Hot Tub']",Sleep Inn Brooklyn
183,TJNYC709,2753.084980237154,40.76541,-73.97197,51,"['Restaurant', 'Fitness Center with Gym / Workout Room', 'Room Service', 'Free High Speed Internet ( WiFi )', 'Bar/Lounge', 'Business Center with Internet Access', 'Room Service', 'Dry Cleaning', 'Meeting Rooms', 'Laundry Service', 'Concierge', 'Banquet Room', 'Multilingual Staff', 'Conference Facilities', 'Air Conditioning', 'Minibar', 'Restaurant', 'Fitness Center with Gym / Workout Room', 'Bar/Lounge']","The Pierre, A Taj Hotel, New York"
184,TMNYCBEE,1046.4910526315791,40.71135,-74.00668,126,"['Room Service', 'Restaurant', 'Bar/Lounge', 'Free High Speed Internet ( WiFi )', 'Fitness Center with Gym / Workout Room', 'Children Activities (Kid / Family Friendly)', 'Room Service', 'Dry Cleaning', 'Meeting Rooms', 'Business Center with Internet Access', 'Laundry Service', 'Concierge', 'Multilingual Staff', 'Banquet Room', 'Air Conditioning', 'Minibar', 'Restaurant', 'Bar/Lounge', 'Fitness Center with Gym / Workout Room']","The Beekman, A Thompson Hotel"
185,UILGAIIP,371.6666666666667,40.73596,-73.98696,63,"['Free High Speed Internet ( WiFi )', 'Room Service', 'Restaurant', 'Bar/Lounge', 'Breakfast included', 'Fitness Center with Gym / Workout Room', 'Banquet Room', 'Multilingual Staff', 'Room Service', 'Breakfast included', 'Dry Cleaning', 'Meeting Rooms', 'Business Center with Internet Access', 'Laundry Service', 'Concierge', 'Air Conditioning', 'Refrigerator in room', 'Minibar', 'Restaurant', 'Bar/Lounge', 'Fitness Center with Gym / Workout Room']",The Inn at Irving Place
186,UINYCOSG,185.875,40.7215,-73.99312,106,"['Free High Speed Internet ( WiFi )', 'Fitness Center with Gym / Workout Room', 'Laundry Service', 'Dry Cleaning', 'Concierge', 'Self-Serve Laundry', 'Air Conditioning', 'Microwave', 'Fitness Center with Gym / Workout Room']",Off Soho Suites
187,UINYCSCH,421.1458333333333,40.75621,-73.9718,70,"['Fitness Center with Gym / Workout Room', 'Free High Speed Internet ( WiFi )', 'Room Service', 'Breakfast included', 'Business Center with Internet Access', 'Room Service', 'Breakfast included', 'Dry Cleaning', 'Meeting Rooms', 'Laundry Service', 'Concierge', 'Multilingual Staff', 'Air Conditioning', 'Microwave', 'Refrigerator in room', 'Minibar', 'Fitness Center with Gym / Workout Room']",San Carlos Hotel
188,UZNYC448,240.65573770491804,40.74656,-73.98605,110,"['Breakfast included', 'Breakfast included', 'Airport Transportation', 'Laundry Service', 'Concierge', 'Air Conditioning']",Wolcott Hotel
189,VNNYC5D0,304.325,40.75183,-73.97237,79,"['Restaurant', 'Bar/Lounge', 'Free High Speed Internet ( WiFi )', 'Fitness Center with Gym / Workout Room', 'Dry Cleaning', 'Business Center with Internet Access', 'Laundry Service', 'Meeting Rooms', 'Air Conditioning', 'Restaurant', 'Bar/Lounge', 'Fitness Center with Gym / Workout Room']",EVEN Hotel New York - Midtown East
190,VNNYCF62,235.95890410958904,40.68745,-73.98179,65,"['Restaurant', 'Bar/Lounge', 'Free High Speed Internet ( WiFi )', 'Fitness Center with Gym / Workout Room', 'Dry Cleaning', 'Business Center with Internet Access', 'Laundry Service', 'Multilingual Staff', 'Meeting Rooms', 'Breakfast Available', 'Air Conditioning', 'Refrigerator in room', 'Restaurant', 'Bar/Lounge', 'Fitness Center with Gym / Workout Room']",EVEN Hotel Brooklyn
191,WBNYC700,634.9333333333333,40.77431,-73.96402,72,"['Fitness Center with Gym / Workout Room', 'Room Service', 'Restaurant', 'Bar/Lounge', 'Free High Speed Internet ( WiFi )', 'Spa', 'Room Service', 'Dry Cleaning', 'Laundry Service', 'Concierge', 'Multilingual Staff', 'Self-Serve Laundry', 'Babysitting', 'Breakfast Available', 'Fitness Center with Gym / Workout Room', 'Restaurant', 'Bar/Lounge', 'Spa']",The Surrey
192,WGLGA451,256.19411764705876,40.75213,-73.99111,104,"['Fitness Center with Gym / Workout Room', 'Restaurant', 'Free High Speed Internet ( WiFi )', 'Breakfast included', 'Business Center with Internet Access', 'Breakfast included', 'Multilingual Staff', 'Meeting Rooms', 'Microwave', 'Fitness Center with Gym / Workout Room', 'Restaurant']",Wingate by Wyndham Manhattan Midtown
193,WHNYC502,415.2,40.7561,-73.9725,70,"['Restaurant', 'Room Service', 'Fitness Center with Gym / Workout Room', 'Bar/Lounge', 'Spa', 'Pool', 'Free Internet', 'Room Service', 'Business Center with Internet Access', 'Meeting Rooms', 'Dry Cleaning', 'Laundry Service', 'Concierge', 'Banquet Room', 'Multilingual Staff', 'Conference Facilities', 'Air Conditioning', 'Minibar', 'Restaurant', 'Fitness Center with Gym / Workout Room', 'Bar/Lounge', 'Spa', 'Pool']",W New York
194,WTNYCTMS,249.7,40.75374,-73.99454,78,"['Free High Speed Internet ( WiFi )', 'Fitness Center with Gym / Workout Room', 'Restaurant', 'Business Center with Internet Access', 'Dry Cleaning', 'Meeting Rooms', 'Laundry Service', 'Concierge', 'Multilingual Staff', 'Air Conditioning', 'Refrigerator in room', 'Fitness Center with Gym / Workout Room', 'Restaurant']",TRYP New York City Times Square South
195,WVLGA097,247.04999999999998,40.76236,-73.92444,81,"['Free High Speed Internet ( WiFi )', 'Restaurant', 'Bar/Lounge', 'Fitness Center with Gym / Workout Room', 'Meeting Rooms', 'Banquet Room', 'Multilingual Staff', 'Conference Facilities', 'Business Center with Internet Access', 'Laundry Service', 'Breakfast Available', 'Air Conditioning', 'Microwave', 'Refrigerator in room', 'Restaurant', 'Bar/Lounge', 'Fitness Center with Gym / Workout Room']",The Paper Factory Hotel
196,WVLGA177,260.66538461538454,40.75507,-73.93541,75,"['Free High Speed Internet ( WiFi )', 'Restaurant', 'Bar/Lounge', 'Dry Cleaning', 'Meeting Rooms', 'Laundry Service', 'Concierge', 'Multilingual Staff', 'Air Conditioning', 'Microwave', 'Refrigerator in room', 'Restaurant', 'Bar/Lounge']",Boro Hotel
197,WVLGAHLJ,222.61111111111111,40.71631,-73.95086,64,"['Free Parking', 'Free High Speed Internet ( WiFi )', 'Breakfast included', 'Free Parking', 'Breakfast included', 'Business Center with Internet Access', 'Multilingual Staff', 'Dry Cleaning', 'Air Conditioning', 'Refrigerator in room']",Hotel Le Jolie
198,WVNYC062,300.01000000000005,40.75473,-73.99106,15,"['Air Conditioning', 'Refrigerator in room']",Manhattan Broadway Hotel
199,WVNYC109,259.0,40.72117,-73.98894,121,"['Free High Speed Internet ( WiFi )', 'Multilingual Staff', 'Air Conditioning']",Orchard Street Hotel
200,WVNYC208,352.05764705882336,40.746,-73.98332,7,"['Free High Speed Internet ( WiFi )', 'Dry Cleaning', 'Laundry Service', 'Concierge', 'Business Center with Internet Access', 'Multilingual Staff', 'Breakfast Available', 'Air Conditioning', 'Minibar', 'Microwave', 'Refrigerator in room']",HGU New York
201,WVNYC254,207.25806451612902,40.74398,-73.99608,108,"['Free High Speed Internet ( WiFi )', 'Breakfast included', 'Breakfast included', 'Multilingual Staff', 'Air Conditioning']",Chelsea Savoy Hotel
202,WVNYC380,598.1666666666666,40.74499,-73.98873,90,"['Room Service', 'Restaurant', 'Bar/Lounge', 'Free High Speed Internet ( WiFi )', 'Fitness Center with Gym / Workout Room', 'Room Service', 'Dry Cleaning', 'Meeting Rooms', 'Laundry Service', 'Concierge', 'Air Conditioning', 'Minibar', 'Restaurant', 'Bar/Lounge', 'Fitness Center with Gym / Workout Room']",The NoMad Hotel
203,WVNYC619,229.0,40.79876,-73.96827,89,"['Free High Speed Internet ( WiFi )', 'Airport Transportation', 'Air Conditioning']",Marrakech Hotel
204,WVNYC624,171.38666666666668,40.79553,-73.97189,38,"['Free High Speed Internet ( WiFi )', 'Multilingual Staff', 'Air Conditioning']",Royal Park Hotel
205,WVNYC826,466.2888324873098,40.75441,-73.97313,70,"['Room Service', 'Restaurant', 'Free High Speed Internet ( WiFi )', 'Bar/Lounge', 'Room Service', 'Dry Cleaning', 'Laundry Service', 'Multilingual Staff', 'Concierge', 'Air Conditioning', 'Restaurant', 'Bar/Lounge']",The Bernic Hotel
206,WVNYC836,220.73333333333335,40.7134,-73.99361,43,"['Free High Speed Internet ( WiFi )', 'Multilingual Staff', 'Air Conditioning']",The Hotel 91
207,WVNYCBLA,387.3499999999998,40.76329,-73.97972,88,"['Restaurant', 'Room Service', 'Free High Speed Internet ( WiFi )', 'Bar/Lounge', 'Breakfast included', 'Fitness Center with Gym / Workout Room', 'Room Service', 'Breakfast included', 'Dry Cleaning', 'Laundry Service', 'Concierge', 'Air Conditioning', 'Microwave', 'Restaurant', 'Bar/Lounge', 'Fitness Center with Gym / Workout Room', 'Tennis Court']",The Blakely New York
208,WVNYCBLE,234.12043478260858,40.67322,-73.98699,82,"['Free Parking', 'Free High Speed Internet ( WiFi )', 'Breakfast included', 'Free Parking', 'Breakfast included', 'Multilingual Staff', 'Air Conditioning', 'Minibar']",Hotel Le Bleu
209,WVNYCMET,322.0,40.74975,-73.98551,61,"['Restaurant', 'Fitness Center with Gym / Workout Room', 'Free High Speed Internet ( WiFi )', 'Bar/Lounge', 'Breakfast included', 'Room Service', 'Business Center with Internet Access', 'Breakfast included', 'Dry Cleaning', 'Meeting Rooms', 'Laundry Service', 'Concierge', 'Multilingual Staff', 'Room Service', 'Air Conditioning', 'Refrigerator in room', 'Restaurant', 'Fitness Center with Gym / Workout Room', 'Bar/Lounge']",Hotel Metro
210,WVNYCWYT,354.2307692307692,40.72189,-73.9581,18,"['Restaurant', 'Bar/Lounge', 'Free High Speed Internet ( WiFi )', 'Dry Cleaning', 'Meeting Rooms', 'Laundry Service', 'Concierge', 'Banquet Room', 'Conference Facilities', 'Breakfast Available', 'Air Conditioning', 'Minibar', 'Refrigerator in room', 'Restaurant', 'Bar/Lounge']",Wythe Hotel
211,WWLGAE65,233.2972067039108,40.76751,-73.86622,20,"['Pool', 'Restaurant', 'Fitness Center with Gym / Workout Room', 'Bar/Lounge', 'Free High Speed Internet ( WiFi )', 'Business Center with Internet Access', 'Shuttle Bus Service', 'Airport Transportation', 'Dry Cleaning', 'Meeting Rooms', 'Laundry Service', 'Concierge', 'Banquet Room', 'Multilingual Staff', 'Conference Facilities', 'Air Conditioning', 'Pool', 'Restaurant', 'Fitness Center with Gym / Workout Room', 'Bar/Lounge', 'Hot Tub', 'Heated pool', 'Indoor pool']",LaGuardia Plaza Hotel - New York
212,WWNYCAME,298.1666666666667,40.76408,-73.98269,23,"['Bar/Lounge', 'Room Service', 'Free Internet', 'Fitness Center with Gym / Workout Room', 'Room Service', 'Dry Cleaning', 'Laundry Service', 'Concierge', 'Multilingual Staff', 'Breakfast Available', 'Air Conditioning', 'Minibar', 'Bar/Lounge', 'Fitness Center with Gym / Workout Room']",Ameritania Hotel
213,WYLGA087,184.41964285714263,40.73198,-73.86649,1,"['Bar/Lounge', 'Free High Speed Internet ( WiFi )', 'Fitness Center with Gym / Workout Room', 'Restaurant', 'Air Conditioning', 'Bar/Lounge', 'Fitness Center with Gym / Workout Room', 'Restaurant']",Wyndham Garden Laguardia South
214,WYLGA998,182.80973451327444,40.7479,-73.79207,16,"['Free High Speed Internet ( WiFi )', 'Breakfast included', 'Fitness Center with Gym / Workout Room', 'Room Service', 'Restaurant', 'Breakfast included', 'Dry Cleaning', 'Meeting Rooms', 'Business Center with Internet Access', 'Multilingual Staff', 'Conference Facilities', 'Room Service', 'Breakfast Available', 'Air Conditioning', 'Refrigerator in room', 'Fitness Center with Gym / Workout Room', 'Restaurant']",Wyndham Garden Fresh Meadows Flushing
215,WYNYC542,286.9896132596683,40.75273,-73.99364,78,"['Restaurant', 'Fitness Center with Gym / Workout Room', 'Free Internet', 'Bar/Lounge', 'Room Service', 'Business Center with Internet Access', 'Room Service', 'Dry Cleaning', 'Meeting Rooms', 'Laundry Service', 'Concierge', 'Banquet Room', 'Multilingual Staff', 'Conference Facilities', 'Air Conditioning', 'Restaurant', 'Fitness Center with Gym / Workout Room', 'Bar/Lounge']",The New Yorker A Wyndham Hotel
216,WYNYC998,247.15200000000004,40.74326,-73.99106,120,"['Free High Speed Internet ( WiFi )', 'Dry Cleaning', 'Laundry Service', 'Multilingual Staff', 'Breakfast Available', 'Air Conditioning']","Hotel Henri, A Wyndham Hotel"
217,XTNYC088,303.31765625,40.75639,-73.98434,103,"['Fitness Center with Gym / Workout Room', 'Room Service', 'Free High Speed Internet ( WiFi )', 'Restaurant', 'Room Service', 'Dry Cleaning', 'Laundry Service', 'Concierge', 'Multilingual Staff', 'Air Conditioning', 'Minibar', 'Fitness Center with Gym / Workout Room', 'Restaurant']",Hotel Mela
218,XTNYC178,333.0,40.7823,-73.98071,17,"['Restaurant', 'Free Internet', 'Bar/Lounge', 'Fitness Center with Gym / Workout Room', 'Business Center with Internet Access', 'Dry Cleaning', 'Laundry Service', 'Concierge', 'Multilingual Staff', 'Breakfast Available', 'Air Conditioning', 'Restaurant', 'Bar/Lounge', 'Fitness Center with Gym / Workout Room', 'Tennis Court']",NYLO New York City
219,XTNYC335,313.439090909091,40.68886,-73.98893,95,"['Free High Speed Internet ( WiFi )', 'Bar/Lounge', 'Breakfast included', 'Fitness Center with Gym / Workout Room', 'Breakfast included', 'Business Center with Internet Access', 'Laundry Service', 'Dry Cleaning', 'Multilingual Staff', 'Babysitting', 'Air Conditioning', 'Bar/Lounge', 'Fitness Center with Gym / Workout Room']",NU Hotel
220,XTNYC600,301.6882716049383,40.74875,-73.99163,55,"['Room Service', 'Restaurant', 'Bar/Lounge', 'Free Internet', 'Fitness Center with Gym / Workout Room', 'Room Service', 'Meeting Rooms', 'Dry Cleaning', 'Laundry Service', 'Concierge', 'Banquet Room', 'Self-Serve Laundry', 'Business Center with Internet Access', 'Multilingual Staff', 'Conference Facilities', 'Air Conditioning', 'Refrigerator in room', 'Restaurant', 'Bar/Lounge', 'Fitness Center with Gym / Workout Room']",Stewart Hotel
221,XTNYC720,440.575,40.76488,-73.98072,23,"['Free High Speed Internet ( WiFi )', 'Bar/Lounge', 'Fitness Center with Gym / Workout Room', 'Dry Cleaning', 'Business Center with Internet Access', 'Laundry Service', 'Concierge', 'Multilingual Staff', 'Air Conditioning', 'Microwave', 'Refrigerator in room', 'Bar/Lounge', 'Fitness Center with Gym / Workout Room']",The Manhattan Club
222,XTNYC801,555.4615384615385,40.75858,-73.96805,119,"['Room Service', 'Free High Speed Internet ( WiFi )', 'Restaurant', 'Bar/Lounge', 'Breakfast included', 'Room Service', 'Breakfast included', 'Dry Cleaning', 'Meeting Rooms', 'Business Center with Internet Access', 'Laundry Service', 'Concierge', 'Multilingual Staff', 'Breakfast Available', 'Air Conditioning', 'Minibar', 'Restaurant', 'Bar/Lounge']",Hotel Elysee by Library Hotel Collection
223,XTNYCFRA,330.42857142857144,40.77969,-73.95453,28,"['Free High Speed Internet ( WiFi )', 'Breakfast included', 'Breakfast included', 'Laundry Service', 'Multilingual Staff']",The Franklin
224,XTNYCGIR,415.0882352941176,40.75858,-73.96805,119,"['Room Service', 'Free High Speed Internet ( WiFi )', 'Bar/Lounge', 'Breakfast included', 'Restaurant', 'Room Service', 'Children Activities (Kid / Family Friendly)', 'Breakfast included', 'Dry Cleaning', 'Laundry Service', 'Concierge', 'Multilingual Staff', 'Breakfast Available', 'Meeting Rooms', 'Business Center with Internet Access', 'Air Conditioning', 'Bar/Lounge', 'Restaurant']",Hotel Giraffe by Library Hotel Collection
225,XTNYCHGO,320.5,40.72643,-74.00896,77,"['Room Service', 'Restaurant', 'Bar/Lounge', 'Free High Speed Internet ( WiFi )', 'Fitness Center with Gym / Workout Room', 'Room Service', 'Dry Cleaning', 'Meeting Rooms', 'Laundry Service', 'Concierge', 'Multilingual Staff', 'Business Center with Internet Access', 'Air Conditioning', 'Refrigerator in room', 'Minibar', 'Restaurant', 'Bar/Lounge', 'Fitness Center with Gym / Workout Room']",Hotel Hugo
226,YHNYCCOU,282.05,40.76167,-73.98477,52,"['Restaurant', 'Bar/Lounge', 'Laundry Service', 'Concierge', 'Multilingual Staff', 'Air Conditioning', 'Restaurant', 'Bar/Lounge']",Amsterdam Court Hotel
227,YONYC73E,312.7638888888889,40.7558,-73.9923,15,"['Fitness Center with Gym / Workout Room', 'Free High Speed Internet ( WiFi )', 'Laundry Service', 'Multilingual Staff', 'Self-Serve Laundry', 'Air Conditioning', 'Microwave', 'Refrigerator in room', 'Fitness Center with Gym / Workout Room']",Candlewood Suites New York City Times Square
228,YXJFK102,376.6521739130435,40.74042,-74.00333,34,"['Free High Speed Internet ( WiFi )', 'Breakfast included', 'Breakfast included', 'Concierge', 'Multilingual Staff', 'Air Conditioning']",Chelsea Pines Inn
229,YXJFKBMI,141.0,40.68178,-74.00648,29,"['Free Parking', 'Free High Speed Internet ( WiFi )', 'Free Parking', 'Business Center with Internet Access', 'Air Conditioning']",Brooklyn Motor Inn
230,YXLGA107,180.42857142857142,40.81535,-73.91596,26,"['Breakfast included', 'Breakfast included', 'Concierge', 'Multilingual Staff', 'Air Conditioning', 'Microwave', 'Refrigerator in room']",Opera House Hotel
231,YXLGA432,167.90000000000012,40.76355,-73.83101,100,"['Restaurant', 'Fitness Center with Gym / Workout Room', 'Free High Speed Internet ( WiFi )', 'Room Service', 'Bar/Lounge', 'Business Center with Internet Access', 'Shuttle Bus Service', 'Airport Transportation', 'Meeting Rooms', 'Laundry Service', 'Multilingual Staff', 'Room Service', 'Dry Cleaning', 'Self-Serve Laundry', 'Conference Facilities', 'Air Conditioning', 'Microwave', 'Restaurant', 'Fitness Center with Gym / Workout Room', 'Bar/Lounge']",Marco LaGuardia Hotel by Lexington
232,YXLGA796,332.4899999999999,40.754,-73.94925,76,"['Restaurant', 'Fitness Center with Gym / Workout Room', 'Bar/Lounge', 'Room Service', 'Free Parking', 'Shuttle Bus Service', 'Room Service', 'Free Parking', 'Airport Transportation', 'Dry Cleaning', 'Meeting Rooms', 'Laundry Service', 'Concierge', 'Banquet Room', 'Multilingual Staff', 'Conference Facilities', 'Air Conditioning', 'Refrigerator in room', 'Minibar', 'Restaurant', 'Fitness Center with Gym / Workout Room', 'Bar/Lounge']",Ravel Hotel
233,YXLGAAHL,129.0,40.76135,-73.83237,11,"['Free High Speed Internet ( WiFi )', 'Breakfast included', 'Breakfast included', 'Air Conditioning']",Asiatic Hotel - Flushing
234,YXNYC020,140.0,40.65665,-73.88932,44,"['Free Parking', 'Free High Speed Internet ( WiFi )', 'Free Parking', 'Air Conditioning']",Galaxy Motel
235,YXNYC068,175.04,40.74469,-73.98161,92,"['Free High Speed Internet ( WiFi )', 'Air Conditioning']",Hotel 31
236,YXNYC084,230.65227272727267,40.76053,-73.98639,52,"['Free High Speed Internet ( WiFi )', 'Bar/Lounge', 'Airport Transportation', 'Dry Cleaning', 'Meeting Rooms', 'Laundry Service', 'Concierge', 'Multilingual Staff', 'Air Conditioning', 'Bar/Lounge']",The Gallivant Times Square
237,YXNYC222,500.096031746032,40.77935,-73.97736,129,"['Free High Speed Internet ( WiFi )', 'Fitness Center with Gym / Workout Room', 'Bar/Lounge', 'Business Center with Internet Access', 'Meeting Rooms', 'Dry Cleaning', 'Laundry Service', 'Concierge', 'Multilingual Staff', 'Self-Serve Laundry', 'Air Conditioning', 'Microwave', 'Refrigerator in room', 'Fitness Center with Gym / Workout Room', 'Bar/Lounge']",Hotel Beacon
238,YXNYC303,186.85714285714286,40.74976,-73.99539,107,"['Free High Speed Internet ( WiFi )', 'Air Conditioning']",Midtown West Hotel
239,YXNYC329,274.05263157894734,40.74331,-73.99003,120,"['Free High Speed Internet ( WiFi )', 'Breakfast included', 'Breakfast included', 'Laundry Service', 'Multilingual Staff', 'Air Conditioning', 'Refrigerator in room']",Heritage Hotel New York City
240,YXNYC467,373.5,40.73605,-73.99598,111,"['Free High Speed Internet ( WiFi )', 'Fitness Center with Gym / Workout Room', 'Room Service', 'Restaurant', 'Bar/Lounge', 'Room Service', 'Dry Cleaning', 'Laundry Service', 'Concierge', 'Multilingual Staff', 'Air Conditioning', 'Fitness Center with Gym / Workout Room', 'Restaurant', 'Bar/Lounge']",Walker Hotel Greenwich Village
241,YXNYC506,399.6,40.78289,-73.94754,80,"['Free High Speed Internet ( WiFi )', 'Fitness Center with Gym / Workout Room', 'Dry Cleaning', 'Laundry Service', 'Concierge', 'Multilingual Staff', 'Self-Serve Laundry', 'Babysitting', 'Air Conditioning', 'Microwave', 'Refrigerator in room', 'Fitness Center with Gym / Workout Room']",The Marmara Manhattan
242,YXNYC575,564.0773333333333,40.74597,-74.0049,98,"['Free High Speed Internet ( WiFi )', 'Bar/Lounge', 'Dry Cleaning', 'Laundry Service', 'Concierge', 'Meeting Rooms', 'Multilingual Staff', 'Conference Facilities', 'Breakfast Available', 'Air Conditioning', 'Minibar', 'Bar/Lounge']",The High Line Hotel
243,YXNYC633,324.0,40.71541,-73.99948,117,"['Free High Speed Internet ( WiFi )', 'Breakfast included', 'Breakfast included', 'Multilingual Staff', 'Banquet Room', 'Air Conditioning', 'Refrigerator in room']",Hotel Mulberry
244,YXNYCAHN,517.3257142857144,40.74584,-73.98811,90,"['Restaurant', 'Room Service', 'Bar/Lounge', 'Free High Speed Internet ( WiFi )', 'Fitness Center with Gym / Workout Room', 'Room Service', 'Dry Cleaning', 'Laundry Service', 'Concierge', 'Multilingual Staff', 'Meeting Rooms', 'Air Conditioning', 'Restaurant', 'Bar/Lounge', 'Fitness Center with Gym / Workout Room']",Ace Hotel New York
245,YXNYCBGR,296.14285714285717,40.75298,-73.97461,45,"['Free High Speed Internet ( WiFi )', 'Restaurant', 'Fitness Center with Gym / Workout Room', 'Room Service', 'Bar/Lounge', 'Meeting Rooms', 'Laundry Service', 'Room Service', 'Dry Cleaning', 'Business Center with Internet Access', 'Concierge', 'Multilingual Staff', 'Self-Serve Laundry', 'Air Conditioning', 'Refrigerator in room', 'Restaurant', 'Fitness Center with Gym / Workout Room', 'Bar/Lounge']",Hotel Boutique At Grand Central
246,YXNYCFIT,328.3,40.75242,-73.97448,45,"['Room Service', 'Restaurant', 'Bar/Lounge', 'Room Service', 'Dry Cleaning', 'Meeting Rooms', 'Laundry Service', 'Concierge', 'Multilingual Staff', 'Conference Facilities', 'Air Conditioning', 'Restaurant', 'Bar/Lounge']",Fitzpatrick Grand Central Hotel
247,YXNYCFMH,437.3939393939394,40.76057,-73.96948,94,"['Room Service', 'Restaurant', 'Bar/Lounge', 'Room Service', 'Dry Cleaning', 'Meeting Rooms', 'Laundry Service', 'Concierge', 'Multilingual Staff', 'Air Conditioning', 'Restaurant', 'Bar/Lounge']",Fitzpatrick Manhattan Hotel
248,YXNYCH06,284.0,40.71954,-73.99457,66,"['Bar/Lounge', 'Free High Speed Internet ( WiFi )', 'Children Activities (Kid / Family Friendly)', 'Concierge', 'Breakfast Available', 'Dry Cleaning', 'Air Conditioning', 'Bar/Lounge']",Sohotel
249,YXNYCHSE,246.88235294117646,40.74996,-73.97663,128,"['Free High Speed Internet ( WiFi )', 'Multilingual Staff', 'Air Conditioning', 'Refrigerator in room']",Seton Hotel
250,YXNYCJNY,384.0,40.75979,-73.97763,88,"['Free High Speed Internet ( WiFi )', 'Fitness Center with Gym / Workout Room', 'Bar/Lounge', 'Laundry Service', 'Multilingual Staff', 'Self-Serve Laundry', 'Dry Cleaning', 'Meeting Rooms', 'Business Center with Internet Access', 'Concierge', 'Breakfast Available', 'Air Conditioning', 'Refrigerator in room', 'Fitness Center with Gym / Workout Room', 'Bar/Lounge']",The Jewel facing Rockefeller Center
251,YXNYCNHP,342.4109589041096,40.74969,-73.99055,104,"['Bar/Lounge', 'Business Center with Internet Access', 'Meeting Rooms', 'Concierge', 'Conference Facilities', 'Air Conditioning', 'Bar/Lounge']",Hotel Pennsylvania New York
252,YXNYCPSH,377.69565217391306,40.74278,-73.9829,92,"['Free High Speed Internet ( WiFi )', 'Fitness Center with Gym / Workout Room', 'Children Activities (Kid / Family Friendly)', 'Dry Cleaning', 'Business Center with Internet Access', 'Laundry Service', 'Concierge', 'Multilingual Staff', 'Meeting Rooms', 'Air Conditioning', 'Fitness Center with Gym / Workout Room']",Park South Hotel
253,YXNYCROG,414.69580756013727,40.7458,-73.98433,7,"['Room Service', 'Restaurant', 'Bar/Lounge', 'Free Internet', 'Fitness Center with Gym / Workout Room', 'Room Service', 'Dry Cleaning', 'Business Center with Internet Access', 'Laundry Service', 'Concierge', 'Meeting Rooms', 'Multilingual Staff', 'Breakfast Available', 'Air Conditioning', 'Minibar', 'Restaurant', 'Bar/Lounge', 'Fitness Center with Gym / Workout Room']",The Roger
254,YXNYCSLE,157.70000000000002,40.75191,-73.98487,61,"['Air Conditioning', 'Refrigerator in room']",Americana Inn
255,YXNYCTFH,266.2972222222222,40.74377,-73.98882,90,"['Bar/Lounge', 'Room Service', 'Restaurant', 'Free High Speed Internet ( WiFi )', 'Children Activities (Kid / Family Friendly)', 'Business Center with Internet Access', 'Breakfast Available', 'Room Service', 'Dry Cleaning', 'Meeting Rooms', 'Laundry Service', 'Concierge', 'Banquet Room', 'Multilingual Staff', 'Conference Facilities', 'Air Conditioning', 'Bar/Lounge', 'Restaurant']",Flatiron Hotel
256,YXNYCTOB,240.7722222222223,40.7635,-73.82844,100,"['Bar/Lounge', 'Free High Speed Internet ( WiFi )', 'Spa', 'Air Conditioning', 'Refrigerator in room', 'Minibar', 'Bar/Lounge', 'Spa']",The One Boutique Hotel
257,YXNYCTPH,198.50954545454545,40.76113,-73.83524,124,"['Bar/Lounge', 'Free High Speed Internet ( WiFi )', 'Breakfast included', 'Fitness Center with Gym / Workout Room', 'Breakfast included', 'Multilingual Staff', 'Breakfast Available', 'Dry Cleaning', 'Laundry Service', 'Air Conditioning', 'Bar/Lounge', 'Fitness Center with Gym / Workout Room']",The Parc Hotel
258,YXNYCTWH,440.23809523809524,40.72161,-73.95883,18,"['Bar/Lounge', 'Free High Speed Internet ( WiFi )', 'Room Service', 'Restaurant', 'Laundry Service', 'Room Service', 'Dry Cleaning', 'Concierge', 'Multilingual Staff', 'Breakfast Available', 'Air Conditioning', 'Minibar', 'Bar/Lounge', 'Restaurant']",The Williamsburg Hotel
259,YXNYCWAS,292.88235294117646,40.73252,-73.99867,56,"['Restaurant', 'Free High Speed Internet ( WiFi )', 'Breakfast included', 'Bar/Lounge', 'Breakfast included', 'Concierge', 'Multilingual Staff', 'Air Conditioning', 'Restaurant', 'Bar/Lounge']",Washington Square Hotel
260,YXNYCWCH,272.0,40.70989,-74.0138,10,"['Free High Speed Internet ( WiFi )', 'Restaurant', 'Room Service', 'Fitness Center with Gym / Workout Room', 'Bar/Lounge', 'Room Service', 'Meeting Rooms', 'Business Center with Internet Access', 'Laundry Service', 'Multilingual Staff', 'Dry Cleaning', 'Concierge', 'Self-Serve Laundry', 'Conference Facilities', 'Air Conditioning', 'Refrigerator in room', 'Restaurant', 'Fitness Center with Gym / Workout Room', 'Bar/Lounge']",World Center Hotel
261,YXNYCWEL,797.9936507936502,40.76456,-73.98038,23,"['Room Service', 'Restaurant', 'Room Service', 'Dry Cleaning', 'Laundry Service', 'Multilingual Staff', 'Concierge', 'Breakfast Available', 'Restaurant']",Wellington Hotel
262,YXNYCWIL,368.57142857142856,40.7209,-73.95543,113,"['Free High Speed Internet ( WiFi )', 'Pool', 'Fitness Center with Gym / Workout Room', 'Bar/Lounge', 'Room Service', 'Restaurant', 'Children Activities (Kid / Family Friendly)', 'Dry Cleaning', 'Laundry Service', 'Concierge', 'Multilingual Staff', 'Breakfast Available', 'Room Service', 'Air Conditioning', 'Refrigerator in room', 'Minibar', 'Pool', 'Fitness Center with Gym / Workout Room', 'Bar/Lounge', 'Heated pool', 'Outdoor pool', 'Restaurant']",McCarren Hotel & Pool
